name,município,data_avist,estado,latitude,longitude,data_revis,status
Barra de Santo Antônio,Barra de Santo Antônio,2019-09-22,AL,-9.34805555555556,-35.4644444444444,2019-10-13,Oleada - Vestígios/Esparsos
Barra do Rio Santo Antônio,Barra de Santo Antônio,2019-10-13,AL,-9.41416666666667,-35.4977194444444,2019-10-24,Óleo - Não Observado
Barra do Santo Antônio,Barra de Santo Antônio,2019-10-13,AL,-9.43135555555556,-35.5087583333333,2019-10-15,Oleada - Manchas
Ilha da Croa,Barra de Santo Antônio,2019-10-13,AL,-9.38210555555556,-35.4912138888889,2019-10-30,Oleada - Vestígios/Esparsos
Praia do Carro Quebrado,Barra de Santo Antônio,2019-09-18,AL,-9.34168888888889,-35.4487,2019-11-01,Óleo - Não Observado
Praia do Morro de Camaragibe,Barra de Santo Antônio,2019-10-21,AL,-9.32866944444444,-35.4389,2019-11-01,Oleada - Vestígios/Esparsos
Barra de São Miguel,Barra de São Miguel,2019-09-19,AL,-9.82565,-35.8792666666667,2019-10-27,Oleada - Vestígios/Esparsos
Praia Bonita,Barra de São Miguel,2019-10-21,AL,-9.84176111111111,-35.8932388888889,2019-11-01,Oleada - Vestígios/Esparsos
Coruripe,Coruripe,2019-10-12,AL,-10.1688888888889,-36.1650916666667,2019-10-24,Oleada - Vestígios/Esparsos
Lagoa do Pau,Coruripe,2019-09-27,AL,-10.1297333333333,-36.1100111111111,2019-10-27,Oleada - Vestígios/Esparsos
Mangue da Foz do Rio Coruripe,Coruripe,2019-10-29,AL,-10.1561694444444,-36.15705,NA,Oleada - Vestígios/Esparsos
Pontal do Coruripe,Coruripe,2019-09-27,AL,-10.1607277777778,-36.1353027777778,2019-10-31,Oleada - Vestígios/Esparsos
Praia de Flexeiras,Feliz Deserto,2019-10-21,AL,-10.3201833333333,-36.3006777777778,2019-11-02,Oleada - Vestígios/Esparsos
Barreira do Boqueirão,Japaratinga,2019-10-14,AL,-9.125,-35.2755555555556,2019-11-01,Óleo - Não Observado
Foz do Rio Manguba,Japaratinga,2019-10-21,AL,-9.1568,-35.2890888888889,2019-11-01,Oleada - Vestígios/Esparsos
Praia de Bitingui,Japaratinga,2019-10-28,AL,-9.11,-35.2658,2019-11-03,Oleada - Vestígios/Esparsos
Praia de Japaratinga,Japaratinga,2019-10-16,AL,-9.08222222222222,-35.2485138888889,2019-11-03,Oleada - Vestígios/Esparsos
Praia do Pontal do Boqueirão,Japaratinga,2019-10-28,AL,-9.1408,-35.2869,2019-10-30,Oleada - Manchas
Rio Salgado,Japaratinga,2019-10-21,AL,-9.06076944444444,-35.2396,2019-10-29,Oleada - Vestígios/Esparsos
Ipioca,Maceió,2019-09-17,AL,-9.54788055555555,-35.61755,2019-11-01,Óleo - Não Observado
Pajuçara/Ponta Verde,Maceió,2019-09-15,AL,-9.66431944444444,-35.7073916666667,2019-11-01,Óleo - Não Observado
Praia de Guaxuma,Maceió,2019-10-25,AL,-9.59305555555556,-35.6688888888889,NA,Oleada - Vestígios/Esparsos
Barra dos Coqueiros,Maragogi,2019-10-20,AL,-8.969625,-35.1771722222222,NA,Oleada - Vestígios/Esparsos
Barra Grande,Maragogi,2019-10-17,AL,-8.99136944444444,-35.1991861111111,2019-11-02,Óleo - Não Observado
Barra Grande,Maragogi,2019-10-16,AL,-8.91638888888889,-35.1527138888889,2019-10-29,Oleada - Vestígios/Esparsos
Centro,Maragogi,2019-10-21,AL,-9.01281944444444,-35.2209611111111,2019-11-01,Oleada - Vestígios/Esparsos
Ponta do Mangue,Maragogi,2019-10-16,AL,-8.95561111111111,-35.1713055555556,2019-10-18,Oleada - Vestígios/Esparsos
Ponta do Mangue,Maragogi,2019-10-16,AL,-8.96309444444444,-35.1749777777778,2019-10-21,Oleada - Vestígios/Esparsos
Praia da Peroba,Maragogi,2019-10-18,AL,-8.93027777777778,-35.1637444444444,2019-11-03,Óleo - Não Observado
Praia de Burgalhau,Maragogi,2019-10-21,AL,-9.00208611111111,-35.2101805555556,NA,Oleada - Vestígios/Esparsos
Praia do Antunes,Maragogi,2019-10-16,AL,-8.97783333333333,-35.1818611111111,2019-11-02,Óleo - Não Observado
Praia do Camacho,Maragogi,2019-10-23,AL,-9.03166666666667,-35.2280333333333,NA,Oleada - Vestígios/Esparsos
Lot. Encontro do Mar,Marechal Deodoro,2019-09-21,AL,-9.78895833333333,-35.85615,2019-10-27,Óleo - Não Observado
Ponta da Barra,Marechal Deodoro,2019-10-13,AL,-9.71735555555555,-35.7959222222222,2019-10-21,Oleada - Vestígios/Esparsos
Praia do Francês,Marechal Deodoro,2019-09-18,AL,-9.76977222222222,-35.8391361111111,2019-10-27,Óleo - Não Observado
Paripueira,Paripueira,2019-09-22,AL,-9.45888888888889,-35.5372222222222,2019-11-01,Óleo - Não Observado
Praia do Marceneiro,Passo de Camaragibe,2019-10-26,AL,-9.29472222222222,-35.3943555555556,2019-10-31,Oleada - Vestígios/Esparsos
Foz do Rio São Francisco,Piaçabuçu,2019-10-09,AL,-10.4894444444444,-36.3936138888889,2019-11-02,Oleada - Vestígios/Esparsos
Piaçabuçu,Piaçabuçu,2019-10-01,AL,-10.4380388888889,-36.353975,2019-11-01,Oleada - Manchas
Praia do Pontal do Peba,Piaçabuçu,2019-10-05,AL,-10.3454,-36.3017194444444,2019-11-02,Oleada - Vestígios/Esparsos
Foz do rio Tatuamunha,Porto de Pedra,2019-10-22,AL,-9.22371944444444,-35.33155,NA,Oleada - Vestígios/Esparsos
Falésias do Gunga,Roteiro,2019-09-22,AL,-9.90309444444445,-35.9387722222222,2019-10-22,Oleada - Vestígios/Esparsos
Lagoa Azeda,Roteiro,2019-10-22,AL,-9.97143888888889,-35.9796916666667,2019-10-29,Oleada - Vestígios/Esparsos
Praia do Gunga,Roteiro,2019-09-22,AL,-9.868125,-35.905775,NA,Oleada - Vestígios/Esparsos
Viral,São Cristóvão,2019-10-20,AL,-11.13625,-37.1547611111111,2019-10-28,Oleada - Vestígios/Esparsos
Praia de Porto da Rua,São Miguel dos Milagres,2019-10-29,AL,-9.24139166666667,-35.3455027777778,2019-11-01,Oleada - Vestígios/Esparsos
Manguezal do rio Maragogi,Maragogi,2019-11-01,AL,-9.02771,-35.22849,NA,Óleo - Não Observado
Praia de Maragogi,Maragogi,2019-11-01,AL,-9.00409,-35.21327,NA,Oleada - Vestígios/Esparsos
Praia de Lages,Porto de Pedras,2019-11-01,AL,-20.3495,-40.3999,2019-11-02,Óleo - Não Observado
Praia de Barra Velha,Belmonte,2019-10-29,BA,-15.8185,-38.869,2019-10-30,Óleo - Não Observado
Garapuá,Cairu,2019-10-22,BA,-13.4805722222222,-38.9158444444444,NA,Oleada - Vestígios/Esparsos
Morro de São Paulo,Cairu,2019-10-21,BA,-13.3828111111111,-38.9090638888889,2019-10-31,Oleada - Vestígios/Esparsos
Praia da Ponta dos Castelhanos,Cairu,2019-10-31,BA,-13.658925,-38.8996027777778,NA,Oleada - Vestígios/Esparsos
Praia de Bainema,Cairu,2019-10-25,BA,-13.6211444444444,-38.90665,2019-11-01,Oleada - Vestígios/Esparsos
Praia de Cueira,Cairu,2019-10-28,BA,-13.5950027777778,-38.9109166666667,2019-11-02,Oleada - Vestígios/Esparsos
Praia de Moreré,Cairu,2019-10-28,BA,-13.598,-38.9051,2019-11-01,Oleada - Vestígios/Esparsos
Praia do Pontal,Cairu,2019-10-27,BA,-13.5793388888889,-38.9273,NA,Oleada - Vestígios/Esparsos
Arembepe,Camaçari,2019-10-10,BA,-12.7625,-38.1681944444444,2019-11-03,Óleo - Não Observado
Barra do Jacuípe,Camaçari,2019-10-22,BA,-12.7059361111111,-38.120275,2019-11-03,Óleo - Não Observado
Guarajuba,Camaçari,2019-10-09,BA,-12.6492555555556,-38.0611583333333,2019-11-03,Óleo - Não Observado
Praia de Busca Vida,Camaçari,2019-10-24,BA,-12.8607027777778,-38.2559972222222,2019-11-02,Óleo - Não Observado
Praia de Itacimirim,Camaçari,2019-10-09,BA,-12.6276,-38.0452138888889,2019-11-02,Oleada - Vestígios/Esparsos
Praia de Jauá,Camaçari,2019-10-18,BA,-12.8268388888889,-38.2226916666667,2019-11-03,Óleo - Não Observado
Praia do Japonês,Camaçari,2019-10-21,BA,-12.8396305555556,-38.2352,2019-11-01,Óleo - Não Observado
Praia da Costa,Canavieiras,2019-10-28,BA,-15.6702305555556,-38.9342305555556,2019-10-31,Oleada - Manchas
Conde,Conde,2019-10-05,BA,-11.7400166666667,-37.5171833333333,2019-10-05,Oleada - Vestígios/Esparsos
Itariri,Conde,2019-10-05,BA,-11.9663222222222,-37.6202333333333,2019-10-25,Oleada - Vestígios/Esparsos
Praia de Poças,Conde,2019-10-20,BA,-11.8137444444444,-37.5459083333333,2019-11-02,Oleada - Vestígios/Esparsos
Praia de Siribinha,Conde,2019-10-29,BA,-11.7647,-37.5242,NA,Oleada - Vestígios/Esparsos
Sítio do Conde,Conde,2019-10-04,BA,-11.8529555555556,-37.5639916666667,2019-11-01,Oleada - Manchas
Porto de Sauípe,Entre Rios,2019-10-09,BA,-12.3922944444444,-37.8815888888889,2019-10-30,Oleada - Manchas
Praia de Massarandupio,Entre Rios,2019-10-11,BA,-12.3120583333333,-37.8274305555556,2019-10-29,Oleada - Vestígios/Esparsos
Baixio,Esplanada,2019-10-07,BA,-12.1333472222222,-37.7069444444444,2019-10-26,Oleada - Vestígios/Esparsos
Foz do Rio Inhampube,Esplanada,2019-10-07,BA,-12.0975,-37.6886111111111,2019-10-30,Oleada - Vestígios/Esparsos
Foz do Rio Subauma,Esplanada,2019-10-07,BA,-12.2272472222222,-37.7636,2019-10-31,Oleada - Vestígios/Esparsos
Mamucabo,Esplanada,2019-10-07,BA,-12.1738833333333,-37.7311638888889,2019-10-31,Oleada - Vestígios/Esparsos
Ponta do Contrato,Igrapiúna,2019-10-29,BA,-13.8117,-39.055,NA,Oleada - Manchas
Acuípe,Ilhéus,2019-10-22,BA,-15.086,-38.99715,2019-10-28,Oleada - Vestígios/Esparsos
Praia da Avenida,Ilhéus,2019-10-29,BA,-14.7945388888889,-39.0281111111111,2019-10-30,Oleada - Vestígios/Esparsos
Praia da Ponta do Ramo,Ilhéus,2019-10-29,BA,-14.5303,-39.0365,NA,Oleada - Vestígios/Esparsos
Praia de Cururupe,Ilhéus,2019-10-27,BA,-14.8813694444444,-39.0224694444444,2019-11-02,Oleada - Manchas
Praia de Jairí,Ilhéus,2019-10-21,BA,-14.9811388888889,-39.0008111111111,2019-11-02,Oleada - Vestígios/Esparsos
Praia de Ponta da Tulha,Ilhéus,2019-10-28,BA,-14.5974111111111,-39.0538305555556,NA,Oleada - Vestígios/Esparsos
Praia de São Miguel,Ilhéus,2019-10-26,BA,-14.7557694444444,-39.0607888888889,2019-11-01,Oleada - Vestígios/Esparsos
Praia de Siriba,Ilhéus,2019-10-20,BA,-14.9578111111111,-39.0055305555556,2019-10-27,Oleada - Vestígios/Esparsos
Praia do Sul,Ilhéus,2019-10-28,BA,-14.9134,-39.0202,2019-11-01,Oleada - Vestígios/Esparsos
Praia dos Milionários,Ilhéus,2019-10-21,BA,-14.8443666666667,-39.0249222222222,2019-10-27,Oleada - Vestígios/Esparsos
Praia Jóia do Atlântico,Ilhéus,2019-10-31,BA,-14.6415388888889,-39.0645388888889,NA,Oleada - Vestígios/Esparsos
Itacaré,Itacaré,2019-10-19,BA,-14.3825138888889,-39.0103944444444,2019-10-28,Oleada - Manchas
Praia da Ribeira,Itacaré,2019-10-30,BA,-14.2898,-38.9852,NA,Oleada - Vestígios/Esparsos
Praia Engenhoca,Itacaré,2019-10-28,BA,-14.3544,-39.0025,NA,Oleada - Manchas
Bom Despacho,Itaparica,2019-10-18,BA,-12.9057916666667,-38.6318805555556,2019-10-28,Óleo - Não Observado
Praia do Garcez,Jaguaripe,2019-10-24,BA,-13.2124555555556,-38.9102111111111,2019-10-30,Óleo - Não Observado
Jandaíra,Jandaíra,2019-10-04,BA,-11.5615111111111,-37.4212611111111,2019-10-05,Oleada - Manchas
Mangue Seco,Jandaíra,2019-10-04,BA,-11.4630027777778,-37.3525555555556,2019-10-28,Oleada - Vestígios/Esparsos
Mangue Seco,Jandaíra,2019-10-14,BA,-11.67715,-37.47995,NA,Oleada - Vestígios/Esparsos
Praia Vilas do Atlântico,Lauro de Freitas,2019-10-11,BA,-12.895,-38.2922222222222,2019-10-16,Óleo - Não Observado
Arandi-Algodões,Maraú,2019-10-29,BA,-14.0731,-38.9553,2019-11-02,Oleada - Vestígios/Esparsos
Barra Grande,Maraú,2019-10-18,BA,-13.8815805555556,-38.9430972222222,2019-10-30,Oleada - Vestígios/Esparsos
Panelas,Maraú,2019-10-31,BA,-13.9683,-38.9349,NA,Oleada - Vestígios/Esparsos
Ponta da Folha,Maraú,2019-10-31,BA,-14.1368,-38.9749,NA,Oleada - Vestígios/Esparsos
Praia de Piracanga,Maraú,2019-10-31,BA,-14.2066861111111,-38.9911527777778,2019-11-02,Oleada - Vestígios/Esparsos
Praia de Saquaíra,Maraú,2019-10-24,BA,-14.0208444444444,-38.9458333333333,2019-11-02,Oleada - Vestígios/Esparsos
Taipu de Fora,Maraú,2019-10-20,BA,-13.9339972222222,-38.9294444444444,2019-10-30,Oleada - Vestígios/Esparsos
Costa do Sauípe,Mata de São João,2019-10-20,BA,-12.4421,-37.9196972222222,2019-10-25,Oleada - Vestígios/Esparsos
Imbassaí,Mata de São João,2019-10-10,BA,-12.4981083333333,-37.9586111111111,2019-10-31,Oleada - Vestígios/Esparsos
Praia do Forte,Mata de São João,2019-10-08,BA,-12.5692416666667,-37.9966611111111,2019-11-03,Óleo - Não Observado
Rio Pojuca,Mata de São João,2019-10-13,BA,-12.59645,-38.0310166666667,2019-10-29,Óleo - Não Observado
Santo Antônio,Mata de São João,2019-10-01,BA,-12.4597027777778,-37.9322944444444,2019-10-25,Oleada - Vestígios/Esparsos
Barra dos Carvalhos,Nilo Peçanha,2019-10-25,BA,-13.6922027777778,-38.9691777777778,NA,Oleada - Vestígios/Esparsos
Praia de Itapororoca,Porto Seguro,2019-10-31,BA,-16.5596,-39.0869,2019-11-01,Oleada - Manchas
Praia de Mucugê,Porto Seguro,2019-10-31,BA,-16.4961,-39.0697,2019-11-01,Oleada - Vestígios/Esparsos
Trancoso Itapororó,Porto Seguro,2019-10-31,BA,-16.6195416666667,-39.0927333333333,2019-11-01,Óleo - Não Observado
Amaralina,Salvador,2019-10-17,BA,-13.0144416666667,-38.4708305555556,2019-11-03,Óleo - Não Observado
Jardim de Alah,Salvador,2019-10-16,BA,-12.9989027777778,-38.4463777777778,2019-11-03,Óleo - Não Observado
Ondina,Salvador,2019-10-19,BA,-13.0109944444444,-38.5088555555556,2019-11-03,Óleo - Não Observado
Pedra do Sal,Salvador,2019-10-16,BA,-12.9523666666667,-38.346275,2019-11-03,Óleo - Não Observado
Pituba,Salvador,2019-10-16,BA,-13.0097055555556,-38.4630555555556,2019-11-03,Óleo - Não Observado
Praia da Armação,Salvador,2019-10-24,BA,-12.9862222222222,-38.4329416666667,2019-11-03,Óleo - Não Observado
Praia da Paciência,Salvador,2019-10-17,BA,-13.0109388888889,-38.4966972222222,NA,Oleada - Vestígios/Esparsos
Praia de Ipitanga,Salvador,2019-10-21,BA,-12.9160888888889,-38.3085388888889,2019-11-03,Oleada - Vestígios/Esparsos
Praia do Corsário,Salvador,2019-10-11,BA,-12.9695833333333,-38.4080138888889,2019-11-03,Oleada - Vestígios/Esparsos
Praia dos Artistas,Salvador,2019-10-11,BA,-12.9758166666667,-38.4174583333333,2019-11-03,Oleada - Vestígios/Esparsos
Praia Jardim dos Namorados,Salvador,2019-10-16,BA,-13.0030555555556,-38.45025,2019-11-03,Óleo - Não Observado
Rio Vermelho,Salvador,2019-10-17,BA,-13.0114055555556,-38.4944527777778,2019-11-03,Oleada - Vestígios/Esparsos
Praia de Arakakaí,Santa Cruz Cabrália,2019-10-31,BA,-16.29,-39.023,NA,Oleada - Vestígios/Esparsos
Ponta da Gameleira,Sirinhaém,2019-10-18,BA,-8.67197777777778,-35.0715305555556,2019-11-02,Oleada - Vestígios/Esparsos
Ilha de Comandatuba (Barra Norte e Barra Sul),Una,2019-10-30,BA,-15.3453,-38.9803,2019-11-02,Oleada - Manchas
Praia Pé de Serra,Uruçuca,2019-10-28,BA,-14.5147,-39.0367,2019-10-30,Oleada - Vestígios/Esparsos
Praia de Guaibim,Valença,2019-10-24,BA,-13.282525,-38.9621305555556,2019-11-02,Oleada - Vestígios/Esparsos
Caixa Prego,Vera Cruz,2019-10-18,BA,-13.1283777777778,-38.791575,2019-11-02,Óleo - Não Observado
Praia de Barra Grande,Vera Cruz,2019-10-19,BA,-13.0421833333333,-38.6776638888889,2019-11-02,Oleada - Vestígios/Esparsos
Praia de Jaburu,Vera Cruz,2019-10-17,BA,-12.9606777777778,-38.605375,2019-11-01,Óleo - Não Observado
Praia de Alcobaça (Praia do Centro),Alcobaça,2019-11-02,BA,-12.8665,-38.4858,NA,Oleada - Vestígios/Esparsos
Praia do Mar Moreno,Belmonte,2019-11-02,BA,-16.6718,-39.2642,2019-11-02,Óleo - Não Observado
Praia de Bainema,Cairu,2019-11-02,BA,-13.65055,-38.89237,NA,Oleada - Vestígios/Esparsos
Ilha de Santa Bárbara,Caravelas,2019-11-02,BA,-12.8665,-38.4858,NA,Oleada - Vestígios/Esparsos
Praia da Ponta da Baleia,Caravelas,2019-11-01,BA,-12.8665,-38.4858,NA,Oleada - Vestígios/Esparsos
Praia do quartel,Ilhéus,2019-11-03,BA,-14.7845,-39.03486,NA,Oleada - Vestígios/Esparsos
Praia da Coroinha,Itacaré,2019-11-01,BA,-12.1356,-38.4192,NA,Oleada - Vestígios/Esparsos
Praia do Pontal,Itacaré,2019-11-01,BA,-23.5505,-46.6333,NA,Oleada - Vestígios/Esparsos
Ilha Quiepe,Ituberá,2019-11-01,BA,-13.73299,-39.1425,NA,Oleada - Manchas
Praia de Pratigi,Ituberá,2019-10-26,BA,-13.79407,-38.99789,2019-11-02,Oleada - Vestígios/Esparsos
Praia do Casssange,Maraú,2019-11-01,BA,-13.733,-39.1425,NA,Oleada - Vestígios/Esparsos
Costa do atlantico,Mucuri,2019-11-03,BA,-23.5505,-46.6333,NA,Oleada - Vestígios/Esparsos
Praia de Itaquena,Porto Seguro,2019-11-02,BA,-16.6718,-39.2642,NA,Oleada - Vestígios/Esparsos
Praia do Taipe (Praia do Rio da Barra),Porto Seguro,2019-11-02,BA,-16.45187,-39.06604,NA,Oleada - Vestígios/Esparsos
Praia de Corumbau,Prado,2019-11-01,BA,-12.8665,-38.4858,NA,Oleada - Vestígios/Esparsos
Praia de Stella Maris,Salvador,2019-11-01,BA,-12.93586,-38.32588,2019-11-03,Oleada - Vestígios/Esparsos
Araripe,Santa Cruz Cabrália,2019-11-01,BA,-16.6718,-39.2642,2019-11-02,Oleada - Vestígios/Esparsos
Praia de Guaiu,Santa Cruz Cabrália,2019-11-01,BA,-12.5303,-38.2992,NA,Oleada - Manchas
Praia Berlinque,Vera Cruz,2019-11-02,BA,-13.11909,-38.77199,NA,Oleada - Vestígios/Esparsos
Praia da Prainha,Aquiraz,2019-09-10,CE,-3.90201388888889,-38.3449444444444,2019-11-01,Óleo - Não Observado
Canoa Quebrada,Aracati,2019-10-23,CE,-4.519525,-37.7068583333333,2019-11-03,Óleo - Não Observado
Cumbe,Aracati,2019-10-26,CE,-4.46694444444444,-37.7433333333333,2019-11-03,Óleo - Não Observado
Praia da Majorlândia,Aracati,2019-10-24,CE,-4.55418888888889,-37.6696611111111,2019-11-03,Óleo - Não Observado
Quixaba,Aracati,2019-10-14,CE,-4.56933888888889,-37.6562222222222,2019-11-03,Óleo - Não Observado
Praia de Bitupitá,Barroquinha,2019-10-21,CE,-2.8891,-41.2713333333333,2019-11-03,Óleo - Não Observado
Barra de Sucatinga,Beberibe,2019-09-08,CE,-4.25277777777778,-38.0075,2019-10-09,Óleo - Não Observado
Morro Branco,Beberibe,2019-09-07,CE,-4.15444444444444,-38.1088888888889,2019-11-03,Óleo - Não Observado
Caponga,Cascavel,2019-10-14,CE,-4.03675277777778,-38.1998944444444,2019-10-23,Óleo - Não Observado
Praia da Barra Nova,Cascavel,2019-10-25,CE,-4.09067222222222,-38.155875,2019-11-01,Óleo - Não Observado
Praia de Sabiaguaba,Fortaleza,2019-09-26,CE,-3.80008333333333,-38.4173583333333,2019-10-17,Oleada - Vestígios/Esparsos
Praia do Futuro,Fortaleza,2019-10-06,CE,-3.74972222222222,-38.4463805555556,NA,Oleada - Vestígios/Esparsos
Pontal de Maceió,Fortim,2019-09-28,CE,-4.42285277777778,-37.7691388888889,2019-11-02,Oleada - Manchas
Praia de Barreiras,Icapuí,2019-10-21,CE,-4.677675,-37.3946694444444,2019-11-02,Óleo - Não Observado
Malhada,Jijoca de Jericoacoara,2019-09-26,CE,-2.79055555555556,-40.5180555555556,2019-10-03,Óleo - Não Observado
Paracuru,Paracuru,2019-09-23,CE,-3.40378611111111,-39.0182833333333,2019-10-18,Oleada - Vestígios/Esparsos
Lagoinha,Paraipaba,2019-10-01,CE,-3.34694444444444,-39.1133333333333,2019-10-18,Oleada - Vestígios/Esparsos
Praia de Taíba,São Gonçalo do Amarante,2019-09-23,CE,-3.51472222222222,-38.8811111111111,2019-10-18,Óleo - Não Observado
Praia de Quitérias,Icapuí,2019-11-01,CE,-4.74681,-37.28445,2019-11-02,Óleo - Não Observado
Ilha do Livramento,Alcântara,2019-09-25,MA,-2.42063611111111,-44.4209555555556,2019-10-17,Óleo - Não Observado
Praia da Mamuna,Alcântara,2019-09-25,MA,-2.26052777777778,-44.3871111111111,2019-10-17,Óleo - Não Observado
Praia de Itatinga,Alcântara,2019-09-22,MA,-2.41294722222222,-44.3986027777778,2019-10-17,Óleo - Não Observado
Ilha dos Poldros,Araioses,2019-09-16,MA,-2.72300277777778,-41.8574666666667,2019-10-30,Oleada - Manchas
Praia Canto do Atins,Barreirinhas,2019-09-20,MA,-2.56776388888889,-42.7466555555556,2019-09-28,Óleo - Não Observado
Praia Canto do Atins,Barreirinhas,2019-09-22,MA,-2.54318055555556,-42.8340444444444,2019-09-28,Óleo - Não Observado
Ilha Caçacueira,Cururupu,2019-10-10,MA,-1.48395555555556,-44.7460527777778,2019-11-02,Óleo - Não Observado
Ilha dos Poldros,Ilha Grande,2019-09-20,MA,-2.74695555555556,-41.8022527777778,2019-09-28,Óleo - Não Observado
Praia do Barro Vermelho,Paulino Neves,2019-09-21,MA,-2.65602777777778,-42.608,2019-09-28,Óleo - Não Observado
Santo Amaro do Maranhão,Santo Amaro do Maranhão,2019-09-25,MA,-2.34571666666667,-43.3483555555556,2019-10-20,Oleada - Vestígios/Esparsos
Travosa,Santo Amaro do Maranhão,2019-09-25,MA,-2.40743888888889,-43.1349194444444,2019-11-01,Óleo - Não Observado
Av. Litorânea,São Luís,2019-09-26,MA,-2.48208333333333,-44.2448055555556,2019-11-03,Óleo - Não Observado
Praia de Camboinha,Cabedelo,2019-09-01,PB,-7.00293611111111,-34.8254527777778,2019-10-01,Óleo - Não Observado
Praia de Intermares,Cabedelo,2019-09-01,PB,-7.04256388888889,-34.8405472222222,2019-11-03,Óleo - Não Observado
Praia do Poço,Cabedelo,2019-09-01,PB,-7.01984166666667,-34.8293861111111,2019-10-03,Óleo - Não Observado
Praia Formosa,Cabedelo,2019-09-01,PB,-6.97252777777778,-34.8289416666667,2019-11-03,Óleo - Não Observado
Praia de Gramame,Conde,2019-08-30,PB,-7.24939166666667,-34.8057361111111,2019-11-03,Óleo - Não Observado
Praia de Jacumã,Conde,2019-08-30,PB,-7.278,-34.7990361111111,2019-11-03,Óleo - Não Observado
Praia de Tabatinga,Conde,2019-10-23,PB,-7.31464722222222,-34.8018638888889,2019-11-03,Oleada - Vestígios/Esparsos
Praia de Tambaba,Conde,2019-08-30,PB,-7.36552777777778,-34.7977333333333,2019-11-03,Óleo - Não Observado
Praia do Amor,Conde,2019-09-30,PB,-7.27421666666667,-34.8013194444444,2019-11-02,Óleo - Não Observado
Praia de Tambaú,João Pessoa,2019-09-01,PB,-7.11256944444444,-34.8213555555556,2019-11-03,Óleo - Não Observado
Praia do Cabo Branco,João Pessoa,2019-09-01,PB,-7.14537222222222,-34.8094,2019-11-01,Óleo - Não Observado
Barra do rio Camaratuba,Mataraca,2019-09-07,PB,-6.59262777777778,-34.9661444444444,2019-10-31,Óleo - Não Observado
Praia Bela,Pitimbu,2019-08-30,PB,-7.39886666666667,-34.80465,2019-10-28,Óleo - Não Observado
Barra do Rio Mamanguape,Rio Tinto,2019-09-07,PB,-6.77765277777778,-34.9229916666667,2019-10-31,Óleo - Não Observado
Lagoa de Praia,Rio Tinto,2019-09-07,PB,-6.80553888888889,-34.9157444444444,2019-10-04,Óleo - Não Observado
Oiteiro,Rio Tinto,2019-09-07,PB,-6.8318,-34.9108666666667,2019-10-04,Óleo - Não Observado
Praia de Campina,Rio Tinto,2019-09-07,PB,-6.81484444444444,-34.914175,2019-10-31,Óleo - Não Observado
Praia do Porto,Barreiros,2019-10-29,PE,-8.80922222222222,-35.1205333333333,2019-11-01,Oleada - Vestígios/Esparsos
Várzea do Una,Barreros,2019-10-28,PE,-8.8438,-35.1398,NA,Oleada - Vestígios/Esparsos
Ilha do Francês/Suape,Cabo de Santo Agostinho,2019-10-31,PE,-8.3743,-34.9586388888889,NA,Oleada - Vestígios/Esparsos
Praia da Enseada dos Corais,Cabo de Santo Agostinho,2019-10-24,PE,-8.31428333333333,-34.94695,2019-11-02,Oleada - Vestígios/Esparsos
Praia de Gaibu,Cabo de Santo Agostinho,2019-10-24,PE,-8.33716111111111,-34.9511,2019-10-29,Oleada - Vestígios/Esparsos
Praia de Itapuama,Cabo de Santo Agostinho,2019-10-24,PE,-8.29661111111111,-34.9523138888889,2019-11-02,Oleada - Vestígios/Esparsos
Praia do Paiva,Cabo de Santo Agostinho,2019-09-04,PE,-8.26004444444444,-34.9447972222222,2019-11-02,Oleada - Vestígios/Esparsos
Suape,Cabo de Santo Agostinho,2019-09-02,PE,-8.35960277777778,-34.9583305555556,2019-11-03,Oleada - Vestígios/Esparsos
Catuama,Goiana,2019-09-07,PE,-7.67988888888889,-34.8321388888889,2019-11-02,Óleo - Não Observado
Praia Ponta de Pedras,Goiana,2019-09-07,PE,-7.63290277777778,-34.8121111111111,2019-11-02,Óleo - Não Observado
Pontal do Jaguaribe,Ilha de Itamaracá,2019-10-25,PE,-7.72555555555556,-34.8263805555556,2019-10-31,Óleo - Não Observado
Praia de Jaguaribe,Ilha de Itamaracá,2019-10-24,PE,-7.73516111111111,-34.8247888888889,2019-11-03,Óleo - Não Observado
Praia de Quatro Cantos,Ilha de Itamaracá,2019-10-25,PE,-7.74055555555556,-34.8230388888889,2019-10-31,Óleo - Não Observado
Praia do Forte Orange,Ilha de Itamaracá,2019-09-02,PE,-7.81034444444444,-34.8382083333333,2019-10-31,Óleo - Não Observado
Praia do Sossego,Ilha de Itamaracá,2019-10-28,PE,-7.7103,-34.8338,2019-10-31,Oleada - Vestígios/Esparsos
Porto de Galinhas,Ipojuca,2019-09-02,PE,-8.50725277777778,-35.0001833333333,2019-10-31,Oleada - Vestígios/Esparsos
Praia de Gamboa,Ipojuca,2019-09-02,PE,-8.47528055555556,-34.9949805555556,NA,Oleada - Vestígios/Esparsos
Praia de Muro Alto,Ipojuca,2019-10-25,PE,-8.4129,-34.9725805555556,2019-11-02,Óleo - Não Observado
Praia de Nossa Senhora do Ó,Ipojuca,2019-09-02,PE,-8.44609166666667,-34.9832138888889,2019-10-28,Oleada - Vestígios/Esparsos
Praia do Cupe,Ipojuca,2019-10-29,PE,-8.4558,-34.9842,2019-11-02,Oleada - Vestígios/Esparsos
Praia do Pontal de Maracaípe,Ipojuca,2019-10-28,PE,-8.52416111111111,-35.0090388888889,2019-10-31,Óleo - Não Observado
Barra da Jangada,Jaboatão dos Guararapes,2019-10-24,PE,-8.21721388888889,-34.9201666666667,2019-10-31,Óleo - Não Observado
Candeias,Jaboatão dos Guararapes,2019-09-03,PE,-8.19621666666667,-34.9186722222222,2019-10-30,Oleada - Vestígios/Esparsos
Piedade,Jaboatão dos Guararapes,2019-09-03,PE,-8.181025,-34.9165555555556,2019-11-02,Óleo - Não Observado
Rio Persinunga,Maragogi,2019-10-29,PE,-8.9134,-35.1537,2019-11-02,Oleada - Vestígios/Esparsos
Praia de Dell Chifre,Olinda,2019-09-02,PE,-8.02687222222222,-34.8586055555556,2019-10-27,Óleo - Não Observado
Conceição,Paulista,2019-09-02,PE,-7.87884444444444,-34.8288166666667,2019-10-30,Oleada - Vestígios/Esparsos
Maria Farinha,Paulista,2019-09-02,PE,-7.85524166666667,-34.8345416666667,2019-10-31,Óleo - Não Observado
Nossa Senhora do Ó,Paulista,2019-10-27,PE,-7.89571944444444,-34.82475,NA,Oleada - Vestígios/Esparsos
Pau Amarelo,Paulista,2019-09-02,PE,-7.93835555555556,-34.8233916666667,2019-10-31,Oleada - Vestígios/Esparsos
Praia do Janga,Paulista,2019-09-02,PE,-7.928175,-34.82075,2019-10-31,Oleada - Vestígios/Esparsos
Boa Viagem,Recife,2019-09-03,PE,-8.14031666666667,-34.9030138888889,2019-11-02,Óleo - Não Observado
São José da Coroa Grande,São José da Coroa Grande,2019-09-25,PE,-8.87085555555556,-35.134052777777796,2019-11-02,Oleada - Vestígios/Esparsos
Ilha de Santo Aleixo,Sirinhaém,2019-10-19,PE,-8.61236111111111,-35.0242611111111,2019-10-30,Oleada - Vestígios/Esparsos
Praia da Barra de Sirinhaém,Sirinhaém,2019-10-25,PE,-8.62271666666667,-35.0570972222222,2019-11-03,Oleada - Vestígios/Esparsos
Carneiros,Tamandaré,2019-09-03,PE,-8.70328888888889,-35.0796916666667,2019-11-02,Oleada - Vestígios/Esparsos
Ponta das Ilhotas,Tamandaré,2019-10-18,PE,-8.78636944444444,-35.103775,2019-10-30,Oleada - Vestígios/Esparsos
Tamandaré,Tamandaré,2019-09-07,PE,-8.76233333333333,-35.1035972222222,2019-10-28,Oleada - Vestígios/Esparsos
Praia da Boca da Barra,Tamandaré,2019-11-01,PE,-8.77772,-35.10634,2019-11-02,Oleada - Vestígios/Esparsos
Praia da Lama,Cajueiro da Praia,2019-09-28,PI,-2.93955555555556,-41.3236611111111,2019-10-24,Óleo - Não Observado
Praia do Pontal,Ilha Grande,2019-10-29,PI,-2.77223611111111,-41.7770083333333,2019-10-31,Oleada - Vestígios/Esparsos
Atalaia,Luís Correia,2019-09-30,PI,-2.88017222222222,-41.6387833333333,2019-10-30,Óleo - Não Observado
Luís Correia,Luís Correia,2019-09-30,PI,-2.89960833333333,-41.6082638888889,2019-09-30,Oleada - Vestígios/Esparsos
Praia do Arrombado,Luís Correia,2019-09-27,PI,-2.91222222222222,-41.5244444444444,2019-09-27,Óleo - Não Observado
Praia do Coqueiro,Luís Correia,2019-09-30,PI,-2.90361111111111,-41.5722222222222,NA,Óleo - Não Observado
Praia Peito de Moça,Luís Correia,2019-09-30,PI,-2.90311111111111,-41.5994444444444,NA,Óleo - Não Observado
Pedra do Sal,Parnaíba,2019-09-30,PI,-2.80695833333333,-41.726375,2019-10-27,Óleo - Não Observado
Praia de Malembá,Senador Georgino Avelino,2019-11-01,RN,-6.17834,-35.09473,2019-11-02,Óleo - Não Observado
Baía Formosa,Baía Formosa,2019-09-07,RN,-6.36900277777778,-35.0012527777778,2019-10-25,Oleada - Vestígios/Esparsos
Praia do Pontal,Baía Formosa,2019-10-27,RN,-6.32313888888889,-35.0331,NA,Oleada - Vestígios/Esparsos
Sagi,Baía Formosa,2019-09-07,RN,-6.46425833333333,-34.97295,2019-11-03,Oleada - Vestígios/Esparsos
Barra do Cunhaú,Canguaretama,2019-09-10,RN,-6.30210833333333,-35.032375,2019-11-01,Óleo - Não Observado
Foz do Rio Catu,Canguaretama,2019-09-12,RN,-6.28681944444444,-35.0349861111111,2019-10-25,Oleada - Vestígios/Esparsos
Jacumã,Ceará-Mirim,2019-09-11,RN,-5.58613888888889,-35.2273888888889,2019-10-28,Oleada - Vestígios/Esparsos
Muriú,Ceará-Mirim,2019-09-12,RN,-5.52316666666667,-35.2515166666667,2019-11-03,Óleo - Não Observado
Praia de Porto Mirim,Ceará-Mirim,2019-10-27,RN,-5.56819722222222,-35.2377472222222,2019-10-28,Oleada - Vestígios/Esparsos
Barra do Rio,Extremoz,2019-09-20,RN,-5.67918333333333,-35.2145666666667,2019-10-28,Óleo - Não Observado
Jenipabu,Extremoz,2019-09-20,RN,-5.692325,-35.2059305555556,2019-11-03,Óleo - Não Observado
Praia de Graçandu,Extremoz,2019-10-28,RN,-5.64813611111111,-35.2179527777778,NA,Oleada - Vestígios/Esparsos
Praia de Pitangui,Extremoz,2019-10-22,RN,-5.62253888888889,-35.2255805555556,2019-11-03,Óleo - Não Observado
Praia de Rendinha Nova,Extremoz,2019-10-23,RN,-5.71871944444444,-35.2005888888889,2019-10-28,Oleada - Vestígios/Esparsos
Praia de Santa Rita,Extremoz,2019-09-20,RN,-5.70210277777778,-35.1935722222222,2019-11-03,Óleo - Não Observado
Cabo de São Roque,Maxaranguape,2019-09-14,RN,-5.48488888888889,-35.2598916666667,2019-10-27,Oleada - Vestígios/Esparsos
Maracajaú,Maxaranguape,2019-09-17,RN,-5.42686666666667,-35.2926416666667,2019-10-02,Oleada - Vestígios/Esparsos
Maracajaú,Maxaranguape,2019-09-10,RN,-5.41065,-35.3096666666667,2019-10-29,Óleo - Não Observado
Praia de Barra de Maxaranguape,Maxaranguape,2019-10-21,RN,-5.51791944444444,-35.2537138888889,2019-11-03,Óleo - Não Observado
Praia de Caraúbas,Maxaranguape,2019-09-15,RN,-5.45771944444444,-35.289830555555596,2019-10-27,Óleo - Não Observado
Ponta Negra,Natal,2019-09-14,RN,-5.87840833333333,-35.1734,2019-11-03,Óleo - Não Observado
Praia de Alagamar,Natal,2019-09-24,RN,-5.89065,-35.153975,2019-09-24,Oleada - Vestígios/Esparsos
Praia de Areia Preta,Natal,2019-09-17,RN,-5.789575,-35.1879138888889,2019-11-03,Óleo - Não Observado
Praia do Forte,Natal,2019-09-17,RN,-5.76275833333333,-35.1955555555556,2019-11-03,Óleo - Não Observado
Redinha,Natal,2019-09-20,RN,-5.75121111111111,-35.2023777777778,2019-11-03,Óleo - Não Observado
Via Costeira,Natal,2019-09-07,RN,-5.8083,-35.1809722222222,2019-11-03,Óleo - Não Observado
Barra de Tabatinga,Nísia Floresta,2019-09-10,RN,-6.05708055555556,-35.0967888888889,2019-11-02,Óleo - Não Observado
Barreta,Nísia Floresta,2019-09-10,RN,-6.12378333333333,-35.0996,2019-11-03,Oleada - Vestígios/Esparsos
Camurupim,Nísia Floresta,2019-09-10,RN,-6.07763611111111,-35.0998722222222,2019-11-03,Oleada - Vestígios/Esparsos
Foz do Rio Pirangi/Pium,Nísia Floresta,2019-09-11,RN,-5.98262777777778,-35.1213833333333,2019-10-24,Óleo - Não Observado
Pirambúzios,Nísia Floresta,2019-09-10,RN,-5.99107777777778,-35.1130944444444,2019-11-01,Óleo - Não Observado
Pirangi do Sul,Nísia Floresta,2019-09-11,RN,-5.98454444444444,-35.1188888888889,2019-11-01,Oleada - Vestígios/Esparsos
Ponta da Ilha Verde,Nísia Floresta,2019-09-12,RN,-6.00706388888889,-35.10685,2019-10-26,Oleada - Vestígios/Esparsos
Praia de Búzios,Nísia Floresta,2019-09-11,RN,-6.01659166666667,-35.108725,2019-11-01,Oleada - Vestígios/Esparsos
Barreira do Inferno,Parnamirim,2019-09-11,RN,-5.93581388888889,-35.1548138888889,2019-09-23,Óleo - Não Observado
Cotolelo,Parnamirim,2019-09-11,RN,-5.96285555555556,-35.1463388888889,2019-10-28,Oleada - Vestígios/Esparsos
Pirangi do Norte,Parnamirim,2019-09-11,RN,-5.97196111111111,-35.1258277777778,2019-11-01,Oleada - Vestígios/Esparsos
Praia de Zumbi,Rio do Fogo,2019-09-11,RN,-5.31956111111111,-35.3620916666667,2019-11-02,Óleo - Não Observado
Rio Punaú,Rio do Fogo,2019-09-11,RN,-5.35016666666667,-35.3568333333333,2019-10-09,Oleada - Vestígios/Esparsos
Lagoa Guaraíras,Senador Georgino Avelino,2019-10-30,RN,-6.1826,-35.0954,NA,Óleo - Não Observado
Praia do Gado Bravo,Tibau,2019-10-25,RN,-4.87631944444444,-37.2262611111111,2019-10-29,Oleada - Vestígios/Esparsos
Pipa,Tibau do Sul,2019-09-10,RN,-6.22791388888889,-35.0475944444444,2019-10-28,Óleo - Não Observado
Pirambu,Tibau do Sul,2019-09-10,RN,-6.18745,-35.0850666666667,2019-10-02,Oleada - Vestígios/Esparsos
Praia de Cacimbinhas,Tibau do Sul,2019-10-24,RN,-6.20083055555556,-35.0819305555556,2019-10-28,Oleada - Vestígios/Esparsos
Praia do Amor,Tibau do Sul,2019-09-10,RN,-6.23059444444444,-35.0421555555556,2019-10-27,Oleada - Vestígios/Esparsos
Praia do Giz,Tibau do Sul,2019-09-10,RN,-6.18230833333333,-35.0895277777778,2019-10-30,Oleada - Vestígios/Esparsos
Praia do Madeiro,Tibau do Sul,2019-10-28,RN,-6.22225277777778,-35.0683388888889,NA,Oleada - Vestígios/Esparsos
Sibaúma/Das Minas,Tibau do Sul,2019-09-11,RN,-6.26569444444444,-35.0382555555556,2019-10-28,Oleada - Vestígios/Esparsos
Perobas,Touros,2019-09-11,RN,-5.25136666666667,-35.3930972222222,2019-10-29,Oleada - Vestígios/Esparsos
Praia Carnaubinhas,Touros,2019-10-21,RN,-5.20183888888889,-35.4517888888889,2019-10-27,Óleo - Não Observado
Praia de Touros,Touros,2019-09-14,RN,-5.18954444444444,-35.4636638888889,2019-11-02,Óleo - Não Observado
Praia do Calcanhar,Touros,2019-09-14,RN,-5.16078055555556,-35.4858,2019-10-27,Óleo - Não Observado
Atalaia,Aracajú,2019-10-02,SE,-10.9805805555556,-37.0363222222222,2019-11-02,Oleada - Vestígios/Esparsos
Mosqueiro,Aracajú,2019-10-16,SE,-11.0459722222222,-37.0870055555556,2019-11-02,Oleada - Vestígios/Esparsos
Praia de Aruanã,Aracajú,2019-10-15,SE,-11.1036444444444,-37.1276527777778,2019-11-01,Oleada - Vestígios/Esparsos
Praia de Coroa do Meio,Aracajú,2019-10-16,SE,-10.963825,-37.0380888888889,2019-11-03,Oleada - Vestígios/Esparsos
Praia dos Artistas,Aracajú,2019-10-29,SE,-10.9685111111111,-37.0351444444444,2019-11-01,Oleada - Vestígios/Esparsos
Praia dos Náufragos,Aracajú,2019-10-29,SE,-11.1295138888889,-37.142,2019-11-01,Oleada - Vestígios/Esparsos
Atalaia Nova,Barra dos Coqueiros,2019-09-02,SE,-10.9522222222222,-37.0294444444444,2019-10-30,Oleada - Vestígios/Esparsos
Barra dos Coqueiros,Barra dos Coqueiros,2019-09-24,SE,-10.9394638888889,-37.0208555555556,2019-10-17,Oleada - Vestígios/Esparsos
Praia Atalaia Nova,Barra dos Coqueiros,2019-10-21,SE,-10.9218,-37.04695,2019-11-03,Oleada - Vestígios/Esparsos
Praia da Costa,Barra dos Coqueiros,2019-09-02,SE,-10.9286111111111,-37.0136111111111,2019-11-03,Oleada - Vestígios/Esparsos
Praia de Jatobá,Barra dos Coqueiros,2019-09-24,SE,-10.8043083333333,-36.9113527777778,2019-10-28,Óleo - Não Observado
Praia do Porto,Barra dos Coqueiros,2019-09-02,SE,-10.8452777777778,-36.9480555555556,2019-10-26,Óleo - Não Observado
Foz do Rio São Francisco,Brejo Grande,2019-10-09,SE,-10.4944444444444,-36.4105583333333,NA,Óleo - Não Observado
Abais,Estância,2019-09-03,SE,-11.3072055555556,-37.2710333333333,2019-11-02,Oleada - Vestígios/Esparsos
Mangue,Indiaroba,2019-10-12,SE,-11.4351333333333,-37.4082305555556,2019-10-30,Oleada - Vestígios/Esparsos
Caueira,Itaporanga d'Ajuda,2019-10-03,SE,-11.2215861111111,-37.2074388888889,2019-11-02,Oleada - Vestígios/Esparsos
Coqueirinho,Itaporanga d'Ajuda,2019-10-30,SE,-11.1753611111111,-37.1659,2019-10-31,Oleada - Vestígios/Esparsos
Mangue,Itaporanga d'Ajuda,2019-10-12,SE,-11.1127777777778,-37.1671194444444,2019-10-30,Oleada - Manchas
Praia do Saco,Itaporanga d'Ajuda,2019-09-03,SE,-11.3946361111111,-37.3076972222222,2019-11-02,Oleada - Vestígios/Esparsos
Praia de Ponta dos Mangues,Pacatuba,2019-09-24,SE,-10.5772111111111,-36.585325,2019-11-02,Óleo - Não Observado
Praia do Pirambu,Pirambu,2019-09-24,SE,-10.7363527777778,-36.8461222222222,2019-11-02,Oleada - Vestígios/Esparsos
Praia do Saco,Estância,2019-11-02,SE,-11.42497,-37.31528,NA,Oleada - Vestígios/Esparsos
