name,município,data_avist,estado,data_revis,status,latitude,longitude
Praia de Flexeiras,Feliz Deserto,2019-10-21,AL,2019-11-04,Oleada - Vestígios/Esparsos,-10.3186,-36.30085
Praia de Lages,Porto de Pedras,2019-11-01,AL,2019-11-02,Óleo - Não Observado,-9.19617777777778,-35.3131833333333
Pajuçara/Ponta Verde,Maceió,2019-09-15,AL,2019-11-01,Óleo - Não Observado,-9.6652,-35.703375
Praia do Carro Quebrado,Barra de Santo Antônio,2019-09-18,AL,2019-11-01,Óleo - Não Observado,-9.34127222222222,-35.4480805555556
Praia de Peroba,Maragogi,2019-11-03,AL,2019-11-03,Oleada - Vestígios/Esparsos,-8.94950277777778,-35.1709388888889
Manguezal do rio Maragogi,Maragogi,2019-11-01,AL,NA,Óleo - Não Observado,-9.02651944444444,-35.2253722222222
Praia Bonita,Barra de São Miguel,2019-10-21,AL,2019-11-01,Oleada - Vestígios/Esparsos,-9.84443611111111,-35.8957083333333
Praia do Morro de Camaragibe,Barra de Santo Antônio,2019-10-21,AL,2019-11-01,Oleada - Vestígios/Esparsos,-9.32885555555556,-35.4385083333333
Praia de Porto da Rua,São Miguel dos Milagres,2019-10-29,AL,2019-11-03,Óleo - Não Observado,-9.24404444444444,-35.3472833333333
Praia de Japaratinga,Japaratinga,2019-11-03,AL,2019-11-03,Oleada - Vestígios/Esparsos,-9.08999722222222,-35.2570972222222
Barra Grande (norte),Maragogi,2019-10-16,AL,2019-11-03,Óleo - Não Observado,-8.91839444444444,-35.1535777777778
Praia do Antunes,Maragogi,2019-10-16,AL,2019-11-03,Óleo - Não Observado,-8.97514444444444,-35.1803722222222
Praia de Burgalhau,Maragogi,2019-10-21,AL,2019-11-04,Óleo - Não Observado,-8.99898333333333,-35.2072388888889
Ponta do Mangue,Maragogi,2019-10-16,AL,2019-10-21,Oleada - Vestígios/Esparsos,-8.95812222222222,-35.1732472222222
Praia da Peroba,Maragogi,2019-10-18,AL,2019-11-03,Óleo - Não Observado,-8.93205277777778,-35.1649611111111
Praia do Camacho,Maragogi,2019-10-23,AL,2019-11-04,Óleo - Não Observado,-9.03202777777778,-35.2278166666667
Barra de São Miguel,Barra de São Miguel,2019-09-19,AL,2019-10-27,Oleada - Vestígios/Esparsos,-9.82570277777778,-35.8787333333333
Barra Grande (sul),Maragogi,2019-10-17,AL,2019-11-02,Óleo - Não Observado,-8.99269722222222,-35.2002472222222
Praia do Francês,Marechal Deodoro,2019-09-18,AL,2019-10-27,Óleo - Não Observado,-9.76764166666667,-35.836875
Falésias do Gunga,Roteiro,2019-09-22,AL,2019-10-22,Oleada - Vestígios/Esparsos,-9.90412222222222,-35.9391277777778
Barra de Santo Antônio,Barra de Santo Antônio,2019-09-22,AL,2019-10-13,Oleada - Vestígios/Esparsos,-9.34828055555556,-35.4639055555556
Praia do Gunga,Roteiro,2019-09-22,AL,NA,Oleada - Vestígios/Esparsos,-9.86557777777778,-35.9057944444444
Praia de Japaratinga,Japaratinga,2019-10-16,AL,2019-11-03,Oleada - Vestígios/Esparsos,-9.08432222222222,-35.2512027777778
Barreira do Boqueirão,Japaratinga,2019-10-14,AL,2019-11-01,Óleo - Não Observado,-9.12666111111111,-35.2791416666667
Praia de Guaxuma,Maceió,2019-10-25,AL,NA,Oleada - Vestígios/Esparsos,-9.59347222222222,-35.6688138888889
Foz do Rio São Francisco,Piaçabuçu,2019-10-09,AL,2019-11-02,Oleada - Vestígios/Esparsos,-10.4946305555556,-36.3936277777778
Ponta da Barra,Marechal Deodoro,2019-10-13,AL,2019-10-21,Oleada - Vestígios/Esparsos,-9.71639444444444,-35.7985722222222
Ilha da Croa,Barra de Santo Antônio,2019-10-13,AL,2019-10-30,Oleada - Vestígios/Esparsos,-9.38472777777778,-35.4925361111111
Coruripe,Coruripe,2019-10-12,AL,2019-10-24,Oleada - Vestígios/Esparsos,-10.1727333333333,-36.1674055555556
Barra do Santo Antônio,Barra de Santo Antônio,2019-10-13,AL,2019-10-15,Oleada - Manchas,-9.42860833333333,-35.5068055555556
Barra do Rio Santo Antônio,Barra de Santo Antônio,2019-10-13,AL,2019-10-24,Óleo - Não Observado,-9.41066944444444,-35.4968138888889
Praia do Marceneiro,Passo de Camaragibe,2019-10-26,AL,2019-10-31,Oleada - Vestígios/Esparsos,-9.29689722222222,-35.3945333333333
Foz do Rio Manguba,Japaratinga,2019-10-21,AL,2019-11-01,Oleada - Vestígios/Esparsos,-9.15609444444445,-35.2890555555556
Foz do rio Tatuamunha,Porto de Pedra,2019-10-22,AL,NA,Oleada - Vestígios/Esparsos,-9.22503888888889,-35.3323138888889
Lagoa Azeda,Roteiro,2019-10-22,AL,2019-10-29,Oleada - Vestígios/Esparsos,-9.97415,-35.9810305555556
Centro,Maragogi,2019-10-21,AL,2019-11-01,Oleada - Vestígios/Esparsos,-9.01254166666667,-35.2196638888889
Rio Salgado,Japaratinga,2019-10-21,AL,2019-10-29,Oleada - Vestígios/Esparsos,-9.06254444444444,-35.2396222222222
Praia de Maragogi,Maragogi,2019-11-01,AL,NA,Oleada - Vestígios/Esparsos,-9.00558611111111,-35.2137083333333
Barra dos Coqueiros,Maragogi,2019-10-20,AL,NA,Oleada - Vestígios/Esparsos,-8.96692777777778,-35.1760305555556
Viral,São Cristóvão,2019-10-20,AL,2019-10-28,Oleada - Vestígios/Esparsos,-11.1351194444444,-37.1559055555556
Lagoa do Pau,Coruripe,2019-09-27,AL,2019-10-27,Oleada - Vestígios/Esparsos,-10.128525,-36.1090722222222
Praia do Pontal do Peba (norte),Piaçabuçu,2019-10-05,AL,2019-11-02,Oleada - Vestígios/Esparsos,-10.3467416666667,-36.3008555555556
Ipioca,Maceió,2019-09-17,AL,2019-11-01,Óleo - Não Observado,-9.54801944444444,-35.6177583333333
Pontal do Coruripe,Coruripe,2019-09-27,AL,2019-10-31,Oleada - Vestígios/Esparsos,-10.1617305555556,-36.1349833333333
Piaçabuçu,Piaçabuçu,2019-10-01,AL,2019-11-01,Oleada - Manchas,-10.4404111111111,-36.3551083333333
Mangue da Foz do Rio Coruripe,Coruripe,2019-10-29,AL,NA,Oleada - Vestígios/Esparsos,-10.1593,-36.1551833333333
Paripueira,Paripueira,2019-09-22,AL,2019-11-01,Óleo - Não Observado,-9.46119166666667,-35.5392333333333
Lot. Encontro do Mar,Marechal Deodoro,2019-09-21,AL,2019-10-27,Óleo - Não Observado,-9.78774444444444,-35.8546277777778
Praia do Pontal do Boqueirão,Japaratinga,2019-10-28,AL,2019-10-30,Oleada - Manchas,-9.14118888888889,-35.2869666666667
Praia de Bitingui,Japaratinga,2019-10-28,AL,2019-11-03,Oleada - Vestígios/Esparsos,-9.10725555555556,-35.2631305555556
Praia de Pontal do Peba (sul),Piaçabuçu,2019-11-04,AL,2019-11-04,Oleada - Vestígios/Esparsos,-10.3599555555556,-36.2987833333333
Praia do Grauçá,Caravelas,2019-11-03,BA,2019-11-04,Oleada - Vestígios/Esparsos,-17.7345777777778,-39.1858833333333
Ilha de Santa Bárbara,Caravelas,2019-11-02,BA,2019-11-04,Óleo - Não Observado,-17.9627722222222,-38.6945472222222
Praia de Siribinha,Conde,2019-10-29,BA,2019-11-04,Oleada - Vestígios/Esparsos,-11.7681277777778,-37.5259111111111
Praia de São Miguel,Ilhéus,2019-10-26,BA,2019-11-04,Óleo - Não Observado,-14.7577083333333,-39.0602972222222
Praia de Jaburu,Vera Cruz,2019-10-17,BA,2019-11-04,Óleo - Não Observado,-12.9601833333333,-38.6051694444444
Praia de Stella Maris,Salvador,2019-11-01,BA,2019-11-04,Óleo - Não Observado,-12.9365916666667,-38.3264444444444
Praia de Barra Grande,Vera Cruz,2019-10-19,BA,2019-11-04,Oleada - Vestígios/Esparsos,-13.0440194444444,-38.6785166666667
Praia de Ponta da Tulha,Ilhéus,2019-10-28,BA,2019-11-04,Oleada - Vestígios/Esparsos,-14.5944861111111,-39.0541972222222
São Domingos,Ilhéus,2019-11-03,BA,2019-11-04,Óleo - Não Observado,-14.7116527777778,-39.0653472222222
Praia do Pontal da Barra,Nova Viçosa,2019-11-03,BA,2019-11-05,Óleo - Não Observado,-17.8992361111111,-39.3587138888889
Praia de Alcobaça (Praia do Centro),Alcobaça,2019-11-02,BA,2019-11-04,Óleo - Não Observado,-17.54035,-39.1910666666667
Praia de Itapororoca,Porto Seguro,2019-10-31,BA,2019-11-04,Oleada - Vestígios/Esparsos,-16.5566055555556,-39.0867527777778
Costa do atlantico,Mucuri,2019-11-03,BA,2019-11-05,Óleo - Não Observado,-17.9743472222222,-39.4722805555556
Morro de São Paulo (terceira praia),Cairu,2019-10-21,BA,2019-11-05,Óleo - Não Observado,-13.3808138888889,-38.9050083333333
Praia do Casssange,Maraú,2019-11-01,BA,NA,Oleada - Vestígios/Esparsos,-13.9995111111111,-38.9442388888889
Araripe,Santa Cruz Cabrália,2019-11-01,BA,2019-11-02,Oleada - Vestígios/Esparsos,-16.1742527777778,-38.9591694444444
Guarajuba,Camaçari,2019-10-09,BA,2019-11-05,Óleo - Não Observado,-12.6483222222222,-38.0610722222222
Ilha Quiepe,Ituberá,2019-11-01,BA,NA,Oleada - Manchas,-13.837,-38.9394583333333
Quarta Praia,Cairu,2019-11-03,BA,2019-11-05,Oleada - Vestígios/Esparsos,-13.3949888888889,-38.9071222222222
Praia da Ponta da Baleia,Caravelas,2019-11-01,BA,NA,Oleada - Vestígios/Esparsos,-17.7051277777778,-39.1509333333333
Praia da Ponta dos Castelhanos,Cairu,2019-10-31,BA,NA,Oleada - Vestígios/Esparsos,-13.6603944444444,-38.8963277777778
Praia de Piracanga,Maraú,2019-10-31,BA,2019-11-02,Oleada - Vestígios/Esparsos,-14.207575,-38.9911527777778
Praia de Mucugê,Porto Seguro,2019-10-31,BA,2019-11-01,Oleada - Vestígios/Esparsos,-16.4953944444444,-39.0686638888889
Panelas,Maraú,2019-10-31,BA,NA,Oleada - Vestígios/Esparsos,-13.9649222222222,-38.9345111111111
Ponta da Folha,Maraú,2019-10-31,BA,NA,Oleada - Vestígios/Esparsos,-14.1386666666667,-38.9753388888889
Ilha de Comandatuba (Barra Norte e Barra Sul),Una,2019-10-30,BA,2019-11-02,Oleada - Manchas,-15.3407722222222,-38.9815194444444
Praia da Coroinha,Itacaré,2019-11-01,BA,NA,Oleada - Vestígios/Esparsos,-14.2766555555556,-38.9957777777778
Praia de Lençóis,Una,2019-11-03,BA,2019-11-03,Oleada - Vestígios/Esparsos,-15.0687138888889,-38.9970583333333
Praia de Saquaíra,Maraú,2019-10-24,BA,2019-11-03,Oleada - Vestígios/Esparsos,-14.0177527777778,-38.9444694444444
Praia de Ipitanga,Salvador,2019-10-21,BA,2019-11-03,Óleo - Não Observado,-12.9167638888889,-38.3091361111111
Praia de Poças,Conde,2019-10-20,BA,2019-11-03,Oleada - Vestígios/Esparsos,-11.8102,-37.5444305555556
Praia de Corumbau,Prado,2019-11-01,BA,2019-11-04,Oleada - Vestígios/Esparsos,-16.9364055555556,-39.1483833333333
Praia de Busca Vida,Camaçari,2019-10-24,BA,2019-11-03,Oleada - Manchas,-12.8597666666667,-38.2531388888889
Praia da Barra (Novo Prado),Prado,2019-11-04,BA,2019-11-04,Oleada - Manchas,-17.3352194444444,-39.2179
Taipu de Fora,Maraú,2019-10-20,BA,2019-11-03,Oleada - Vestígios/Esparsos,-13.9381444444444,-38.9284666666667
Barra Grande,Maraú,2019-10-18,BA,2019-11-03,Oleada - Vestígios/Esparsos,-13.8815833333333,-38.9435611111111
Praia de Siriba,Ilhéus,2019-10-20,BA,2019-11-03,Oleada - Vestígios/Esparsos,-14.9607111111111,-39.0060805555556
Praia de Jauá,Camaçari,2019-10-18,BA,2019-11-03,Oleada - Vestígios/Esparsos,-12.8273388888889,-38.2232055555556
Barra do Jacuípe,Camaçari,2019-10-22,BA,2019-11-04,Oleada - Vestígios/Esparsos,-12.7049777777778,-38.1199166666667
Ondina,Salvador,2019-10-19,BA,2019-11-04,Óleo - Não Observado,-13.0123416666667,-38.5103805555556
Amaralina,Salvador,2019-10-17,BA,2019-11-04,Óleo - Não Observado,-13.0149,-38.4711944444444
Praia de Guaratiba,Prado,2019-11-04,BA,2019-11-04,Oleada - Vestígios/Esparsos,-17.4143361111111,-39.2013305555556
Praia de Pratigi,Ituberá,2019-10-26,BA,2019-11-03,Oleada - Vestígios/Esparsos,-13.7900722222222,-38.9980694444444
Ondina,Salvador,2019-10-19,BA,2019-11-04,Óleo - Não Observado,-13.0112472222222,-38.5141972222222
Praia da Ribeira,Itacaré,2019-10-30,BA,2019-11-03,Óleo - Não Observado,-14.2909944444444,-38.9832
Praia dos Artistas,Salvador,2019-10-11,BA,2019-11-04,Óleo - Não Observado,-12.9742472222222,-38.4142944444444
Costa do Sauípe,Mata de São João,2019-10-20,BA,2019-10-25,Oleada - Vestígios/Esparsos,-12.4397805555556,-37.9167194444444
Pedra do Sal,Salvador,2019-10-16,BA,2019-11-03,Óleo - Não Observado,-12.9531138888889,-38.346675
Bom Despacho,Itaparica,2019-10-18,BA,2019-10-28,Óleo - Não Observado,-12.9076361111111,-38.6301861111111
Praia Jardim dos Namorados,Salvador,2019-10-16,BA,2019-11-04,Óleo - Não Observado,-13.0046638888889,-38.4522194444444
Jardim de Alah,Salvador,2019-10-16,BA,2019-11-04,Óleo - Não Observado,-13.0001972222222,-38.4470777777778
Ponta da Gameleira,Sirinhaém,2019-10-18,BA,2019-11-02,Oleada - Vestígios/Esparsos,-8.6701,-35.0701388888889
Praia do Taipe (Praia do Rio da Barra),Porto Seguro,2019-11-02,BA,NA,Oleada - Vestígios/Esparsos,-16.4537194444444,-39.0630472222222
Itacaré,Itacaré,2019-10-19,BA,2019-10-28,Oleada - Manchas,-14.3828777777778,-39.0099944444444
Porto de Sauípe,Entre Rios,2019-10-09,BA,2019-10-30,Oleada - Manchas,-12.3886,-37.8793583333333
Baixio,Esplanada,2019-10-07,BA,2019-10-26,Oleada - Vestígios/Esparsos,-12.1316,-37.7054194444444
Imbassaí,Mata de São João,2019-10-10,BA,2019-10-31,Oleada - Vestígios/Esparsos,-12.4990361111111,-37.9592388888889
Praia Vilas do Atlântico,Lauro de Freitas,2019-10-11,BA,2019-10-16,Óleo - Não Observado,-12.895525,-38.2922444444444
Praia do Corsário,Salvador,2019-10-11,BA,2019-11-03,Oleada - Vestígios/Esparsos,-12.9692416666667,-38.4068138888889
Praia da Paciência,Salvador,2019-10-17,BA,NA,Oleada - Vestígios/Esparsos,-13.0122861111111,-38.4993111111111
Pituba,Salvador,2019-10-16,BA,2019-11-03,Óleo - Não Observado,-13.011,-38.4652138888889
Praia de Itacimirim,Camaçari,2019-10-09,BA,2019-11-02,Oleada - Vestígios/Esparsos,-12.6290722222222,-38.0451138888889
Arembepe,Camaçari,2019-10-10,BA,2019-11-03,Óleo - Não Observado,-12.7608638888889,-38.1667694444444
Praia de Massarandupio,Entre Rios,2019-10-11,BA,2019-10-29,Oleada - Vestígios/Esparsos,-12.312675,-37.8279833333333
Praia de Cururupe,Ilhéus,2019-10-27,BA,2019-11-02,Oleada - Manchas,-14.8833777777778,-39.0236305555556
Praia da Armação,Salvador,2019-10-24,BA,2019-11-03,Óleo - Não Observado,-12.9894861111111,-38.4356583333333
Foz do Rio Inhampube,Esplanada,2019-10-07,BA,2019-10-30,Oleada - Vestígios/Esparsos,-12.0999388888889,-37.6866611111111
Santo Antônio,Mata de São João,2019-10-01,BA,2019-10-25,Oleada - Vestígios/Esparsos,-12.460825,-37.9332194444444
Foz do Rio Subauma,Esplanada,2019-10-07,BA,2019-10-31,Oleada - Vestígios/Esparsos,-12.2261888888889,-37.7624444444444
Praia do Forte,Mata de São João,2019-10-08,BA,2019-11-03,Óleo - Não Observado,-12.5710444444444,-37.9974305555556
Costa Azul,Jandaíra,2019-10-14,BA,NA,Oleada - Vestígios/Esparsos,-11.6783611111111,-37.4800972222222
Rio Vermelho,Salvador,2019-10-17,BA,2019-11-03,Oleada - Vestígios/Esparsos,-13.0140916666667,-38.4917527777778
Barra dos Carvalhos,Nilo Peçanha,2019-10-25,BA,NA,Oleada - Vestígios/Esparsos,-13.6909027777778,-38.9661583333333
Praia de Bainema,Cairu,2019-10-25,BA,2019-11-01,Oleada - Vestígios/Esparsos,-13.6188166666667,-38.9048222222222
Praia de Guaibim,Valença,2019-10-24,BA,2019-11-02,Oleada - Vestígios/Esparsos,-13.2867166666667,-38.9634777777778
Praia do Garcez,Jaguaripe,2019-10-24,BA,2019-10-30,Óleo - Não Observado,-13.2140194444444,-38.9106805555556
Praia de Itaquena,Porto Seguro,2019-11-02,BA,NA,Oleada - Vestígios/Esparsos,-16.6520305555556,-39.0945
Praia do Pontal,Itacaré,2019-11-01,BA,NA,Oleada - Vestígios/Esparsos,-14.2706083333333,-38.9933055555556
Praia do Mar Moreno,Belmonte,2019-11-02,BA,2019-11-02,Óleo - Não Observado,-15.8554694444444,-38.8579444444444
Praia de Jairí,Ilhéus,2019-10-21,BA,2019-11-02,Oleada - Vestígios/Esparsos,-14.9784833333333,-39.0027722222222
Garapuá,Cairu,2019-10-22,BA,NA,Oleada - Vestígios/Esparsos,-13.4832861111111,-38.9177805555556
Acuípe,Ilhéus,2019-10-22,BA,2019-10-28,Oleada - Vestígios/Esparsos,-15.0878166666667,-38.9971777777778
Praia dos Milionários,Ilhéus,2019-10-21,BA,2019-10-27,Oleada - Vestígios/Esparsos,-14.8406305555556,-39.0253666666667
Praia do quartel,Ilhéus,2019-11-03,BA,NA,Oleada - Vestígios/Esparsos,-14.7845722222222,-39.0336944444444
Praia do Pontal,Cairu,2019-10-27,BA,NA,Oleada - Vestígios/Esparsos,-13.5779916666667,-38.9282055555556
Praia de Bainema (sul),Cairu,2019-11-02,BA,NA,Oleada - Vestígios/Esparsos,-13.64915,-38.8924055555556
Praia do Japonês,Camaçari,2019-10-21,BA,2019-11-01,Óleo - Não Observado,-12.8397777777778,-38.2347166666667
Arandi-Algodões,Maraú,2019-10-29,BA,2019-11-02,Oleada - Vestígios/Esparsos,-14.0697444444444,-38.9556611111111
Praia da Ponta do Ramo,Ilhéus,2019-10-29,BA,NA,Oleada - Vestígios/Esparsos,-14.5334944444444,-39.0363555555556
Ponta do Contrato,Igrapiúna,2019-10-29,BA,NA,Oleada - Manchas,-13.81075,-39.056275
Praia Pé de Serra,Uruçuca,2019-10-28,BA,2019-10-30,Oleada - Vestígios/Esparsos,-14.5158888888889,-39.0360194444444
Praia Engenhoca,Itacaré,2019-10-28,BA,NA,Oleada - Manchas,-14.3535444444444,-39.0020444444444
Praia da Avenida,Ilhéus,2019-10-29,BA,2019-10-30,Oleada - Vestígios/Esparsos,-14.7925083333333,-39.0289
Jandaíra,Jandaíra,2019-10-04,BA,2019-10-05,Oleada - Manchas,-11.5648,-37.4231194444444
Mamucabo,Esplanada,2019-10-07,BA,2019-10-31,Oleada - Vestígios/Esparsos,-12.1709805555556,-37.7290583333333
Itariri,Conde,2019-10-05,BA,2019-10-25,Oleada - Vestígios/Esparsos,-11.9689027777778,-37.6195777777778
Praia Jóia do Atlântico,Ilhéus,2019-10-31,BA,NA,Oleada - Vestígios/Esparsos,-14.6385555555556,-39.0654472222222
Praia Jóia do Atlântico,Ilhéus,2019-10-31,BA,NA,Oleada - Vestígios/Esparsos,-14.6352694444444,-39.0655388888889
Trancoso Itapororó,Porto Seguro,2019-10-31,BA,2019-11-01,Óleo - Não Observado,-16.6184638888889,-39.0929583333333
Praia de Arakakaí,Santa Cruz Cabrália,2019-10-31,BA,NA,Oleada - Vestígios/Esparsos,-16.2924111111111,-39.0227666666667
Praia de Barra Velha,Belmonte,2019-10-29,BA,2019-10-30,Óleo - Não Observado,-15.8160722222222,-38.8700805555556
Sítio do Conde,Conde,2019-10-04,BA,2019-11-01,Oleada - Manchas,-11.8522555555556,-37.563625
Mangue Seco,Jandaíra,2019-10-04,BA,2019-10-28,Oleada - Vestígios/Esparsos,-11.4617694444444,-37.3518111111111
Praia de Moreré,Cairu,2019-10-28,BA,2019-11-01,Oleada - Vestígios/Esparsos,-13.5932027777778,-38.9011638888889
Praia da Costa,Canavieiras,2019-10-28,BA,2019-10-31,Oleada - Manchas,-15.6701611111111,-38.9344027777778
Praia do Sul,Ilhéus,2019-10-28,BA,2019-11-01,Oleada - Vestígios/Esparsos,-14.909875,-39.0208527777778
Praia de Cueira,Cairu,2019-10-28,BA,2019-11-02,Oleada - Vestígios/Esparsos,-13.5952305555556,-38.9080277777778
Conde,Conde,2019-10-05,BA,2019-10-05,Oleada - Vestígios/Esparsos,-11.7415055555556,-37.515175
Caixa Prego,Vera Cruz,2019-10-18,BA,2019-11-04,Óleo - Não Observado,-13.1295722222222,-38.7857722222222
Praia Berlinque,Vera Cruz,2019-11-02,BA,2019-11-04,Óleo - Não Observado,-13.1221444444444,-38.7678611111111
Rio Pojuca,Mata de São João,2019-10-13,BA,2019-11-04,Oleada - Vestígios/Esparsos,-12.5973555555556,-38.0306444444444
Praia de Guaiu,Santa Cruz Cabrália,2019-11-01,BA,2019-11-04,Oleada - Vestígios/Esparsos,-16.0843194444444,-38.9465277777778
Praia de Mogiquiçaba,Belmonte,2019-11-04,BA,2019-11-04,Oleada - Vestígios/Esparsos,-16.0897638888889,-38.9499111111111
Praia de Arakakaí,Santa Cruz Cabrália,2019-11-04,BA,2019-11-04,Oleada - Vestígios/Esparsos,-16.1893472222222,-38.9666472222222
Praia de Mamoã,Ilhéus,2019-11-04,BA,2019-11-04,Oleada - Vestígios/Esparsos,-14.5682111111111,-39.0482722222222
Praia da Costa,Canavieiras,2019-11-05,BA,2019-11-05,Oleada - Manchas,-15.7055666666667,-38.9260416666667
Praia de Aibim,Maraú,2019-11-04,BA,2019-11-04,Oleada - Vestígios/Esparsos,-14.1658722222222,-38.9791
Praia de Taperapuã,Porto Seguro,2019-11-04,BA,2019-11-04,Oleada - Vestígios/Esparsos,-16.4208444444444,-39.0537388888889
Ilha Redonda (abrolhos),Caravelas,2019-11-04,BA,2019-11-04,Oleada - Vestígios/Esparsos,-17.9679916666667,-38.7111916666667
Caponga,Cascavel,2019-10-14,CE,2019-11-04,Óleo - Não Observado,-4.03724166666667,-38.1999388888889
Morro Branco,Beberibe,2019-09-07,CE,2019-11-04,Óleo - Não Observado,-4.15488333333333,-38.1062583333333
Pontal de Maceió,Fortim,2019-09-28,CE,2019-11-04,Oleada - Vestígios/Esparsos,-4.42271944444444,-37.7655111111111
Praia de Bitupitá,Barroquinha,2019-10-21,CE,2019-11-03,Óleo - Não Observado,-2.88544166666667,-41.2679972222222
Praia de Barreiras,Icapuí,2019-10-21,CE,2019-11-03,Óleo - Não Observado,-4.67662777777778,-37.3990694444444
Canoa Quebrada,Aracati,2019-10-23,CE,2019-11-04,Óleo - Não Observado,-4.51880277777778,-37.7085083333333
Praia de Sabiaguaba,Fortaleza,2019-09-26,CE,2019-11-04,Óleo - Não Observado,-3.80233611111111,-38.4140527777778
Praia da Majorlândia,Aracati,2019-10-24,CE,2019-11-04,Óleo - Não Observado,-4.55555555555556,-37.6688694444444
Praia de Quitérias,Icapuí,2019-11-01,CE,2019-11-03,Óleo - Não Observado,-4.74721666666667,-37.2852444444444
Praia do Futuro,Fortaleza,2019-10-06,CE,2019-11-04,Óleo - Não Observado,-3.74625555555556,-38.4469416666667
Praia da Prainha,Aquiraz,2019-09-10,CE,2019-11-04,Óleo - Não Observado,-3.89934166666667,-38.3481111111111
Lagoinha,Paraipaba,2019-10-01,CE,2019-10-18,Oleada - Vestígios/Esparsos,-3.347475,-39.115225
Quixaba,Aracati,2019-10-14,CE,2019-11-03,Óleo - Não Observado,-4.56843055555556,-37.6574083333333
Praia da Barra Nova,Cascavel,2019-10-25,CE,2019-11-01,Óleo - Não Observado,-4.09345,-38.1547
Cumbe,Aracati,2019-10-26,CE,2019-11-03,Óleo - Não Observado,-4.46678333333333,-37.7448444444444
Malhada,Jijoca de Jericoacoara,2019-09-26,CE,2019-10-03,Óleo - Não Observado,-2.79075833333333,-40.5186194444444
Praia de Taíba,São Gonçalo do Amarante,2019-09-23,CE,2019-10-18,Óleo - Não Observado,-3.51295555555556,-38.8830472222222
Paracuru,Paracuru,2019-09-23,CE,2019-10-18,Oleada - Vestígios/Esparsos,-3.40395833333333,-39.0212333333333
Barra de Sucatinga,Beberibe,2019-09-08,CE,2019-11-04,Óleo - Não Observado,-4.25275833333333,-38.0043055555556
Praia de Cumbuco,Caucaia,2019-11-05,CE,2019-11-05,Oleada - Vestígios/Esparsos,-3.6256,-38.7281722222222
Barra do Rio Pirangi,Beberibe,2019-11-04,CE,2019-11-04,Oleada - Vestígios/Esparsos,-4.37634444444444,-37.8564305555556
Ilha dos Poldros,Araioses,2019-09-16,MA,2019-10-30,Oleada - Manchas,-2.72313888888889,-41.8551222222222
Travosa,Santo Amaro do Maranhão,2019-09-25,MA,2019-11-03,Óleo - Não Observado,-2.405575,-43.1349194444444
Praia Canto do Atins,Barreirinhas,2019-09-22,MA,2019-09-28,Óleo - Não Observado,-2.54468333333333,-42.8296055555556
Praia da Mamuna,Alcântara,2019-09-25,MA,2019-10-17,Óleo - Não Observado,-2.26211666666667,-44.3859694444444
Santo Amaro do Maranhão,Santo Amaro do Maranhão,2019-09-25,MA,2019-10-20,Oleada - Vestígios/Esparsos,-2.34097222222222,-43.3494972222222
Ilha do Livramento,Alcântara,2019-09-25,MA,2019-10-17,Óleo - Não Observado,-2.41785,-44.4224361111111
Ilha Caçacueira,Cururupu,2019-10-10,MA,2019-11-02,Óleo - Não Observado,-1.48079722222222,-44.746075
Av. Litorânea,São Luís,2019-09-26,MA,2019-11-03,Óleo - Não Observado,-2.47782777777778,-44.2430416666667
Praia do Barro Vermelho,Paulino Neves,2019-09-21,MA,2019-09-28,Óleo - Não Observado,-2.65156111111111,-42.6110805555556
Praia de Itatinga,Alcântara,2019-09-22,MA,2019-10-17,Óleo - Não Observado,-2.41160555555556,-44.3939472222222
Ilha dos Poldros,Ilha Grande,2019-09-20,MA,2019-09-28,Óleo - Não Observado,-2.73817222222222,-41.7952666666667
Atins,Barreirinhas,2019-09-20,MA,2019-09-28,Óleo - Não Observado,-2.56662222222222,-42.7495444444444
Praia do Amor,Conde,2019-09-30,PB,2019-11-05,Óleo - Não Observado,-7.27155833333333,-34.8023194444444
Praia de Jacumã,Conde,2019-08-30,PB,2019-11-05,Óleo - Não Observado,-7.28023611111111,-34.7992055555556
Praia de Tambaú,João Pessoa,2019-09-01,PB,2019-11-03,Óleo - Não Observado,-7.11035277777778,-34.8232444444444
Lagoa de Praia,Rio Tinto,2019-09-07,PB,2019-10-04,Óleo - Não Observado,-6.80958055555556,-34.9146833333333
Praia de Tambaba,Conde,2019-08-30,PB,2019-11-05,Óleo - Não Observado,-7.369325,-34.7985444444444
Oiteiro,Rio Tinto,2019-09-07,PB,2019-10-04,Óleo - Não Observado,-6.83430555555556,-34.9109055555556
Praia de Campina,Rio Tinto,2019-09-07,PB,2019-10-31,Óleo - Não Observado,-6.81674166666667,-34.9137666666667
Barra do Rio Mamanguape,Rio Tinto,2019-09-07,PB,2019-10-31,Óleo - Não Observado,-6.77191111111111,-34.9241361111111
Praia do Cabo Branco,João Pessoa,2019-09-01,PB,2019-11-03,Óleo - Não Observado,-7.14256111111111,-34.8137333333333
Praia de Gramame,Conde,2019-08-30,PB,2019-11-04,Óleo - Não Observado,-7.25310555555556,-34.8060916666667
Praia Formosa,Cabedelo,2019-09-01,PB,2019-11-04,Óleo - Não Observado,-6.96818333333333,-34.8298111111111
Praia de Intermares,Cabedelo,2019-09-01,PB,2019-11-03,Óleo - Não Observado,-7.04602222222222,-34.8408
Barra do rio Camaratuba,Mataraca,2019-09-07,PB,2019-10-31,Óleo - Não Observado,-6.594975,-34.9659916666667
Praia de Tabatinga,Conde,2019-10-23,PB,2019-11-03,Oleada - Vestígios/Esparsos,-7.31353888888889,-34.802025
Praia do Poço,Cabedelo,2019-09-01,PB,2019-10-03,Óleo - Não Observado,-7.02218055555556,-34.8296222222222
Praia Bela,Pitimbu,2019-08-30,PB,2019-10-28,Óleo - Não Observado,-7.39643055555556,-34.8044083333333
Praia de Camboinha,Cabedelo,2019-09-01,PB,2019-10-01,Óleo - Não Observado,-7.00517222222222,-34.8256916666667
Praia de Itapuama,Cabo de Santo Agostinho,2019-10-24,PE,2019-11-04,Oleada - Vestígios/Esparsos,-8.29287777777778,-34.9518555555556
Praia da Boca da Barra,Tamandaré,2019-11-01,PE,2019-11-04,Oleada - Vestígios/Esparsos,-8.77498055555555,-35.1065638888889
Praia da Enseada dos Corais,Cabo de Santo Agostinho,2019-10-24,PE,2019-11-04,Oleada - Vestígios/Esparsos,-8.31661666666667,-34.9481361111111
Ponta das Ilhotas,Tamandaré,2019-10-18,PE,2019-11-03,Óleo - Não Observado,-8.78363333333333,-35.1040277777778
Maria Farinha,Paulista,2019-09-02,PE,2019-10-31,Óleo - Não Observado,-7.85920277777778,-34.8345666666667
Praia de Dell Chifre,Olinda,2019-09-02,PE,2019-10-27,Óleo - Não Observado,-8.02763055555556,-34.8579611111111
Praia de Gamboa,Ipojuca,2019-09-02,PE,NA,Oleada - Vestígios/Esparsos,-8.47556111111111,-34.9937083333333
Conceição,Paulista,2019-09-02,PE,2019-10-30,Oleada - Vestígios/Esparsos,-7.87654722222222,-34.8308611111111
Praia do Pontal de Maracaípe,Ipojuca,2019-10-28,PE,2019-11-03,Óleo - Não Observado,-8.52775,-35.006625
São José da Coroa Grande,São José da Coroa Grande,2019-09-25,PE,2019-11-03,Oleada - Vestígios/Esparsos,-8.87045555555556,-35.1323777777778
Praia de Gaibu,Cabo de Santo Agostinho,2019-10-24,PE,2019-11-03,Oleada - Vestígios/Esparsos,-8.33524166666667,-34.9491444444444
Praia da Barra da Jangada,Jaboatão dos Guararapes,2019-11-04,PE,2019-11-04,Oleada - Vestígios/Esparsos,-8.22107222222222,-34.923
Praia do Janga,Paulista,2019-09-02,PE,2019-11-04,Óleo - Não Observado,-7.92815555555556,-34.8206444444444
Praia de Muro Alto,Ipojuca,2019-11-04,PE,2019-11-04,Oleada - Vestígios/Esparsos,-8.43485,-34.9782722222222
Praia Ponta de Pedras,Goiana,2019-09-07,PE,2019-11-04,Óleo - Não Observado,-7.63277777777778,-34.8114888888889
Catuama,Goiana,2019-09-07,PE,2019-11-04,Óleo - Não Observado,-7.68190833333333,-34.8344111111111
Praia de Porto de Galinhas,Ipojuca,2019-11-04,PE,2019-11-04,Óleo - Não Observado,-8.50099722222222,-35.0013944444444
Praia do Forte Orange,Ilha de Itamaracá,2019-09-02,PE,2019-11-05,Óleo - Não Observado,-7.81108333333333,-34.8389333333333
Praia da Barra de Sirinhaém,Sirinhaém,2019-10-25,PE,2019-11-04,Óleo - Não Observado,-8.61985277777778,-35.0554166666667
Praia do Paiva,Cabo de Santo Agostinho,2019-09-04,PE,2019-11-03,Oleada - Vestígios/Esparsos,-8.25800555555556,-34.9427138888889
Pau Amarelo,Paulista,2019-09-02,PE,2019-11-05,Óleo - Não Observado,-7.93705,-34.8229972222222
Ilha de Santo Aleixo,Sirinhaém,2019-10-19,PE,2019-10-30,Oleada - Vestígios/Esparsos,-8.61136111111111,-35.0231944444444
Porto de Galinhas,Ipojuca,2019-09-02,PE,2019-10-31,Oleada - Vestígios/Esparsos,-8.51053055555556,-35.0007027777778
Praia de Cambôa,Ipojuca,2019-11-04,PE,2019-11-04,Oleada - Vestígios/Esparsos,-8.48261111111111,-34.9975333333333
Praia de Jaguaribe,Ilha de Itamaracá,2019-10-24,PE,2019-11-05,Óleo - Não Observado,-7.73273333333333,-34.825175
Suape,Cabo de Santo Agostinho,2019-09-02,PE,2019-11-03,Oleada - Vestígios/Esparsos,-8.36040555555556,-34.9586583333333
Piedade,Jaboatão dos Guararapes,2019-09-03,PE,2019-11-02,Óleo - Não Observado,-8.17760833333333,-34.9159527777778
Barra da Jangada,Jaboatão dos Guararapes,2019-10-24,PE,2019-10-31,Óleo - Não Observado,-8.21329444444445,-34.9188055555556
Pontal do Jaguaribe,Ilha de Itamaracá,2019-10-25,PE,2019-10-31,Óleo - Não Observado,-7.72510277777778,-34.8284444444444
Praia de Muro Alto,Ipojuca,2019-10-25,PE,2019-11-02,Óleo - Não Observado,-8.41820277777778,-34.9718111111111
Praia de Quatro Cantos,Ilha de Itamaracá,2019-10-25,PE,2019-10-31,Óleo - Não Observado,-7.74159722222222,-34.8238833333333
Nossa Senhora do Ó,Paulista,2019-10-27,PE,NA,Oleada - Vestígios/Esparsos,-7.89147777777778,-34.8234916666667
Praia do Sossego,Ilha de Itamaracá,2019-10-28,PE,2019-11-05,Óleo - Não Observado,-7.70905277777778,-34.8334555555556
Praia do Porto,Barreiros,2019-10-29,PE,2019-11-01,Oleada - Vestígios/Esparsos,-8.81081944444444,-35.12105
Rio Persinunga,Maragogi,2019-10-29,PE,2019-11-02,Oleada - Vestígios/Esparsos,-8.91138888888889,-35.1522611111111
Praia do Cupe,Ipojuca,2019-10-29,PE,2019-11-04,Óleo - Não Observado,-8.451375,-34.9842222222222
Tamandaré,Tamandaré,2019-09-07,PE,2019-10-28,Oleada - Vestígios/Esparsos,-8.76573055555555,-35.104
Candeias,Jaboatão dos Guararapes,2019-09-03,PE,2019-10-30,Oleada - Vestígios/Esparsos,-8.1948,-34.9179166666667
Boa Viagem,Recife,2019-09-03,PE,2019-11-02,Óleo - Não Observado,-8.14396666666667,-34.9042527777778
Ilha do Francês/Suape,Cabo de Santo Agostinho,2019-10-31,PE,NA,Oleada - Vestígios/Esparsos,-8.37680555555556,-34.9573472222222
Carneiros,Tamandaré,2019-09-03,PE,2019-11-02,Oleada - Vestígios/Esparsos,-8.70639722222222,-35.0794166666667
Praia de Nossa Senhora do Ó,Ipojuca,2019-09-02,PE,2019-10-28,Oleada - Vestígios/Esparsos,-8.44189444444445,-34.9809166666667
Várzea do Una,Barreros,2019-10-28,PE,2019-11-04,Óleo - Não Observado,-8.84556388888889,-35.1366277777778
Atalaia,Luís Correia,2019-09-30,PI,2019-11-04,Óleo - Não Observado,-2.88353888888889,-41.6375944444444
Luís Correia,Luís Correia,2019-09-30,PI,2019-11-04,Óleo - Não Observado,-2.90028888888889,-41.6062083333333
Praia Peito de Moça,Luís Correia,2019-09-30,PI,NA,Óleo - Não Observado,-2.90395,-41.5979916666667
Praia da Lama,Cajueiro da Praia,2019-09-28,PI,2019-10-24,Óleo - Não Observado,-2.93810833333333,-41.3211
Pedra do Sal,Parnaíba,2019-09-30,PI,2019-10-27,Óleo - Não Observado,-2.80683333333333,-41.7265833333333
Praia do Coqueiro,Luís Correia,2019-09-30,PI,NA,Óleo - Não Observado,-2.9043,-41.5721222222222
Praia do Pontal,Ilha Grande,2019-10-29,PI,2019-10-31,Oleada - Vestígios/Esparsos,-2.77083055555556,-41.7768527777778
Praia do Arrombado,Luís Correia,2019-09-27,PI,2019-09-27,Óleo - Não Observado,-2.91119722222222,-41.5221888888889
Pirambúzios,Nísia Floresta,2019-09-10,RN,2019-11-04,Óleo - Não Observado,-5.993,-35.1127166666667
Redinha,Natal,2019-09-20,RN,2019-11-04,Óleo - Não Observado,-5.75365,-35.2002805555556
Jenipabu,Extremoz,2019-09-20,RN,2019-11-05,Óleo - Não Observado,-5.69318055555556,-35.2057194444444
Camurupim,Nísia Floresta,2019-09-10,RN,2019-11-05,Óleo - Não Observado,-6.07726666666667,-35.1004416666667
Barreta,Nísia Floresta,2019-09-10,RN,2019-11-05,Óleo - Não Observado,-6.12183611111111,-35.0989111111111
Barra de Tabatinga,Nísia Floresta,2019-09-10,RN,2019-11-05,Óleo - Não Observado,-6.06106111111111,-35.096875
Praia de Santa Rita,Extremoz,2019-09-20,RN,2019-11-05,Óleo - Não Observado,-5.70079166666667,-35.1933361111111
Praia de Búzios,Nísia Floresta,2019-09-11,RN,2019-11-05,Óleo - Não Observado,-6.01684722222222,-35.1083638888889
Sagi,Baía Formosa,2019-09-07,RN,2019-11-04,Oleada - Vestígios/Esparsos,-6.46665833333333,-34.971825
Praia de Porto Mirim,Ceará-Mirim,2019-10-27,RN,2019-11-05,Óleo - Não Observado,-5.56426388888889,-35.2386472222222
Praia de Pitangui,Extremoz,2019-10-22,RN,2019-11-05,Óleo - Não Observado,-5.61863333333333,-35.2272805555556
Jacumã,Ceará-Mirim,2019-09-11,RN,2019-11-05,Óleo - Não Observado,-5.58280277777778,-35.2263333333333
Barra do Rio,Extremoz,2019-09-20,RN,2019-11-05,Óleo - Não Observado,-5.67770277777778,-35.2163944444444
Ponta Negra,Natal,2019-09-14,RN,2019-11-03,Óleo - Não Observado,-5.87629722222222,-35.1758638888889
Praia de Areia Preta,Natal,2019-09-17,RN,2019-11-04,Oleada - Vestígios/Esparsos,-5.790675,-35.1872527777778
Baía Formosa,Baía Formosa,2019-09-07,RN,2019-11-05,Óleo - Não Observado,-6.36844722222222,-35.0019361111111
Cabo de São Roque,Maxaranguape,2019-09-14,RN,2019-11-05,Óleo - Não Observado,-5.49059166666667,-35.2605722222222
Praia do Calcanhar,Touros,2019-09-14,RN,2019-10-27,Óleo - Não Observado,-5.16239444444444,-35.4851555555556
Praia de Barreta,Nisia Floresta,2019-11-03,RN,2019-11-03,Oleada - Vestígios/Esparsos,-6.11279722222222,-35.1003555555556
Praia de Malembá,Senador Georgino Avelino,2019-11-01,RN,2019-11-03,Óleo - Não Observado,-6.17507777777778,-35.0961777777778
Perobas,Touros,2019-09-11,RN,2019-11-03,Óleo - Não Observado,-5.25523888888889,-35.3905416666667
Praia de Touros,Touros,2019-09-14,RN,2019-11-03,Óleo - Não Observado,-5.19062222222222,-35.4633222222222
Praia de Caraúbas,Maxaranguape,2019-09-15,RN,2019-11-03,Óleo - Não Observado,-5.46127222222222,-35.28755
Ponta de Maracajaú,Maxaranguape,2019-09-17,RN,2019-11-03,Óleo - Não Observado,-5.42761388888889,-35.2963333333333
Pirangi do Sul,Nísia Floresta,2019-09-11,RN,2019-11-03,Oleada - Vestígios/Esparsos,-5.98507777777778,-35.1173111111111
Pipa,Tibau do Sul,2019-09-10,RN,2019-11-04,Óleo - Não Observado,-6.22779444444444,-35.0511444444444
Praia de Zumbi,Rio do Fogo,2019-09-11,RN,2019-11-04,Oleada - Vestígios/Esparsos,-5.32008333333333,-35.36305
Foz do Rio Pirangi/Pium,Nísia Floresta,2019-09-11,RN,2019-11-03,Oleada - Vestígios/Esparsos,-5.98033333333333,-35.1218361111111
Barra do Cunhaú,Canguaretama,2019-09-10,RN,2019-11-04,Óleo - Não Observado,-6.29619722222222,-35.0334277777778
Sibaúma/Das Minas,Tibau do Sul,2019-09-11,RN,2019-11-04,Oleada - Vestígios/Esparsos,-6.26163611111111,-35.0379583333333
Maracajaú,Maxaranguape,2019-09-10,RN,2019-10-29,Óleo - Não Observado,-5.40803611111111,-35.3112055555556
Ponta da Ilha Verde,Nísia Floresta,2019-09-12,RN,2019-10-26,Oleada - Vestígios/Esparsos,-6.00858333333333,-35.1057388888889
Praia do Forte,Natal,2019-09-17,RN,2019-11-03,Óleo - Não Observado,-5.76593333333333,-35.1947222222222
Praia de Alagamar,Natal,2019-09-24,RN,2019-09-24,Oleada - Vestígios/Esparsos,-5.89133611111111,-35.1541722222222
Praia do Gado Bravo,Tibau,2019-10-25,RN,2019-10-29,Oleada - Vestígios/Esparsos,-4.88007222222222,-37.2234638888889
Praia de Rendinha Nova,Extremoz,2019-10-23,RN,2019-10-28,Oleada - Vestígios/Esparsos,-5.71745,-35.2004833333333
Praia de Cacimbinhas,Tibau do Sul,2019-10-24,RN,2019-10-28,Oleada - Vestígios/Esparsos,-6.20447222222222,-35.0809
Praia de Graçandu,Extremoz,2019-10-28,RN,NA,Oleada - Vestígios/Esparsos,-5.65090833333333,-35.2177972222222
Praia de Barra de Maxaranguape,Maxaranguape,2019-10-21,RN,2019-11-03,Óleo - Não Observado,-5.51613611111111,-35.2575611111111
Praia Carnaubinhas,Touros,2019-10-21,RN,2019-10-27,Óleo - Não Observado,-5.20156388888889,-35.4518361111111
Praia do Pontal,Baía Formosa,2019-10-27,RN,NA,Oleada - Vestígios/Esparsos,-6.32182222222222,-35.0345166666667
Praia do Madeiro,Tibau do Sul,2019-10-28,RN,NA,Oleada - Vestígios/Esparsos,-6.22298611111111,-35.0670611111111
Praia do Amor,Tibau do Sul,2019-09-10,RN,2019-10-27,Oleada - Vestígios/Esparsos,-6.22902777777778,-35.0428527777778
Pirambu,Tibau do Sul,2019-09-10,RN,2019-10-02,Oleada - Vestígios/Esparsos,-6.18756388888889,-35.0850444444444
Via Costeira,Natal,2019-09-07,RN,2019-11-04,Oleada - Vestígios/Esparsos,-5.81073333333333,-35.1825722222222
Lagoa Guaraíras,Senador Georgino Avelino,2019-10-30,RN,NA,Óleo - Não Observado,-6.18109722222222,-35.0924694444444
Rio Punaú,Rio do Fogo,2019-09-11,RN,2019-10-09,Oleada - Vestígios/Esparsos,-5.34635833333333,-35.3593722222222
Muriú,Ceará-Mirim,2019-09-12,RN,2019-11-03,Óleo - Não Observado,-5.51858611111111,-35.2508638888889
Foz do Rio Catu,Canguaretama,2019-09-12,RN,2019-10-25,Oleada - Vestígios/Esparsos,-6.28943611111111,-35.0345805555556
Praia do Giz,Tibau do Sul,2019-09-10,RN,2019-10-30,Oleada - Vestígios/Esparsos,-6.18440277777778,-35.0890638888889
Cotolelo,Parnamirim,2019-09-11,RN,2019-10-28,Oleada - Vestígios/Esparsos,-5.96209444444444,-35.147675
Barreira do Inferno,Parnamirim,2019-09-11,RN,2019-09-23,Óleo - Não Observado,-5.93612777777778,-35.1545055555556
Pirangi do Norte,Parnamirim,2019-09-11,RN,2019-11-01,Oleada - Vestígios/Esparsos,-5.97274722222222,-35.1263194444444
Praia de Coroa do Meio,Aracajú,2019-10-16,SE,2019-11-05,Oleada - Vestígios/Esparsos,-10.9666416666667,-37.0305861111111
Praia do Porto,Barra dos Coqueiros,2019-11-03,SE,2019-11-03,Oleada - Vestígios/Esparsos,-10.8672944444444,-36.9663416666667
Praia de Jatobá,Barra dos Coqueiros,2019-09-24,SE,2019-11-03,Oleada - Vestígios/Esparsos,-10.8038777777778,-36.9113611111111
Praia da Costa,Barra dos Coqueiros,2019-11-03,SE,2019-11-03,Oleada - Vestígios/Esparsos,-10.9034472222222,-36.9942611111111
Dunas (norte),Estância,2019-11-04,SE,2019-11-04,Oleada - Vestígios/Esparsos,-11.3314833333333,-37.2852472222222
Praia Caueira,Itaporanga d'Ajuda,2019-11-04,SE,2019-11-04,Óleo - Não Observado,-11.20775,-37.1925888888889
Dunas (sul),Estância,2019-11-04,SE,2019-11-04,Oleada - Vestígios/Esparsos,-11.3988111111111,-37.3117444444444
Praia de Aruanã,Aracajú,2019-10-15,SE,2019-11-04,Oleada - Vestígios/Esparsos,-11.1071861111111,-37.1287805555556
Praia de Ponta dos Mangues,Pacatuba,2019-09-24,SE,2019-11-03,Oleada - Vestígios/Esparsos,-10.5746222222222,-36.5847
Praia do Pirambu,Pirambu,2019-09-24,SE,2019-11-03,Oleada - Vestígios/Esparsos,-10.7384611111111,-36.8476416666667
Tecarmo,Aracaju,2019-11-03,SE,2019-11-03,Oleada - Vestígios/Esparsos,-11.016175,-37.06795
Mosqueiro,Aracajú,2019-10-16,SE,2019-11-04,Oleada - Vestígios/Esparsos,-11.0464805555556,-37.0886805555556
Praia do Saco (1),Itaporanga d'Ajuda,2019-09-03,SE,2019-11-04,Óleo - Não Observado,-11.3905305555556,-37.3094888888889
Praia do Saco (3),Estância,2019-11-04,SE,2019-11-04,Oleada - Vestígios/Esparsos,-11.4292416666667,-37.3390083333333
Praia dos Artistas,Aracajú,2019-10-29,SE,2019-11-04,Oleada - Vestígios/Esparsos,-10.9741527777778,-37.0309166666667
Barra dos Coqueiros,Barra dos Coqueiros,2019-09-24,SE,2019-10-17,Oleada - Vestígios/Esparsos,-10.9407,-37.0205333333333
Mangue,Indiaroba,2019-10-12,SE,2019-10-30,Oleada - Vestígios/Esparsos,-11.4360444444444,-37.4074388888889
Foz do Rio São Francisco,Brejo Grande,2019-10-09,SE,NA,Óleo - Não Observado,-10.49215,-36.411275
Mangue,Itaporanga d'Ajuda,2019-10-12,SE,2019-10-30,Oleada - Manchas,-11.1143194444444,-37.1683611111111
Praia do Saco (2),Estância,2019-11-02,SE,NA,Oleada - Vestígios/Esparsos,-11.4254444444444,-37.3175694444444
Praia Atalaia Nova,Barra dos Coqueiros,2019-10-21,SE,2019-11-03,Oleada - Vestígios/Esparsos,-10.923400000000001,-37.0448305555556
Praia dos Náufragos,Aracajú,2019-10-29,SE,2019-11-01,Oleada - Vestígios/Esparsos,-11.1333833333333,-37.1422027777778
Praia do Porto,Barra dos Coqueiros,2019-09-02,SE,2019-10-26,Óleo - Não Observado,-10.8442472222222,-36.9479805555556
Atalaia Nova,Barra dos Coqueiros,2019-09-02,SE,2019-10-30,Oleada - Vestígios/Esparsos,-10.9494611111111,-37.026125
Abais,Estância,2019-09-03,SE,2019-11-02,Oleada - Vestígios/Esparsos,-11.307175,-37.2718805555556
Caueira,Itaporanga d'Ajuda,2019-10-03,SE,2019-11-02,Oleada - Vestígios/Esparsos,-11.2201277777778,-37.2044638888889
Atalaia,Aracajú,2019-10-02,SE,2019-11-02,Oleada - Vestígios/Esparsos,-10.9821916666667,-37.0372694444444
Coqueirinho,Itaporanga d'Ajuda,2019-10-30,SE,2019-10-31,Oleada - Vestígios/Esparsos,-11.1798472222222,-37.1661472222222
Praia da Costa,Barra dos Coqueiros,2019-09-02,SE,2019-11-03,Oleada - Vestígios/Esparsos,-10.9244361111111,-37.0105916666667
